,name,latitude,longitude,1,2,3,4,5,6,7,8,9,10,11,12,13,14,15,16,17,18,19,20,21,22,23,0,Distance Score,address,
2290,?림빌딩,37.50011591,126.8983575,10,7,2,5,7,8,5,7,10,2,2,6,5,2,3,8,10,5,8,1,3,7,5,3,6,?울 ?등?구 ?림동 688,
2377,?락빌딩,37.50099384,126.8990718,7,4,3,6,3,8,10,6,10,3,8,8,8,9,2,5,8,6,1,5,7,10,10,3,6,?울 ?등?구 ?림동 682-2,
2375,메디칼빌??37.50125784306892,126.8992618,1,3,8,7,10,10,7,10,10,3,3,8,5,10,1,5,1,10,9,6,5,3,3,1,4,?울 ?등?구 ?림동 681,,
5805,베뢰?국???원,37.500914,126.8982524,2,8,10,2,5,8,10,3,2,3,7,8,10,7,10,4,2,9,7,5,6,6,2,10,4,?울 ?등?구 ?림동 665-10,
4227,베뢰???원??교,37.50097671,126.8982846,5,8,3,10,1,1,1,1,5,6,10,2,6,1,7,8,6,7,7,5,8,5,5,6,4,?울 ?등?구 ?림동 665-10,
4529,광림빌딩,37.4996649,126.8981603,6,9,10,5,5,10,10,1,9,8,4,3,2,4,4,2,10,7,8,9,8,4,5,3,4,?울 ?등?구 ?림동 688-2,
2402,?국빌딩,37.50107773,126.8984134,5,9,5,5,7,1,4,4,5,3,3,6,4,1,6,8,10,2,2,4,7,8,2,4,4,?울 ?등?구 ?림동 665-9,
2404,주한?이?빌??37.50192335315159,126.8992041,8,10,5,10,1,3,5,8,3,4,6,10,1,4,2,1,6,6,1,1,1,6,5,7,2,?울 ?등?구 ?림동 667-11,,
5784,????주??터 1??장??37.4982639,126.8980626,8,6,2,10,8,2,5,5,10,2,2,8,8,8,10,4,2,5,1,3,3,3,2,1,2,?울 ?등?구 ?림동 740-4,,
5785,????주??터 2??장??37.4982639,126.8980626,8,1,1,7,3,1,8,3,1,3,8,7,9,10,4,3,8,6,4,4,1,3,8,1,2,?울 ?등?구 ?림동 740-4,,
517,?사?공?화?실,37.49846239,126.8973129,5,10,1,3,8,5,8,10,6,4,7,3,8,6,6,1,1,10,9,6,4,1,9,5,2,?울 ?등?구 ?림동 742,
4531,?나???37.49982512953471,126.8970689,10,2,3,9,9,2,9,5,2,5,8,2,8,2,9,8,1,3,8,3,10,5,3,5,2,?울 ?등?구 ?림동 779-10,,
5852,?림요?병???장??37.5026502,126.8997613,4,8,9,7,4,10,4,2,6,3,1,3,1,3,8,10,1,5,7,8,4,9,2,7,2,?울 ?등?구 ?림동 668-12,,
1576,?일주유?화?실,37.50169635,126.8988771,7,5,9,6,1,2,6,4,5,6,3,4,3,8,7,1,10,6,1,7,10,3,6,2,2,?울 ?등?구 ?림동 667-13,
2389,?림동주유??37.50129231106037,126.8974129,9,4,6,9,10,9,3,6,10,10,2,4,9,4,1,7,6,7,4,5,10,9,5,4,2,?울 ?등?구 ?림동 664-18,,
1641,?윈주유?화?실,37.5023074,126.8995663,8,7,3,4,2,2,10,3,1,4,4,9,7,10,7,4,5,4,6,10,3,7,2,2,2,?울 ?등?구 ?림동 667-9,
2292,?봉빌딩,37.49807563,126.8989146,4,9,1,2,10,8,3,7,9,3,6,4,6,9,10,7,6,3,2,7,9,5,5,8,2,?울 ?등?구 ?림동 692,
1653,?림동주유?화?실,37.50127396,126.8975437,6,1,9,4,3,2,4,7,4,3,10,1,8,8,9,10,10,8,1,4,3,1,2,7,2,?울 ?등?구 ?림동 664-18,
5739,???린?공??37.4980913,126.8996106,1,10,2,8,4,6,3,4,2,4,5,4,2,4,10,2,2,7,5,9,8,5,2,2,2,?울 ?등?구 ?림동 690,,
556,??공원?장??37.498102738123,126.8996276,9,10,6,5,2,7,6,10,9,4,10,3,10,5,4,8,3,4,10,9,9,10,4,4,2,?울 ?등?구 ?림동 690,,
2269,?도빌딩,37.49877621,126.8979097,2,9,6,4,6,10,10,9,1,8,7,3,8,8,3,4,3,3,1,7,7,10,5,1,2,?울 ?등?구 ?림동 740-2,
2369,콤텍?스??37.50002020694344,126.8969012,9,5,2,9,4,7,2,8,4,8,8,4,5,2,10,9,3,4,10,1,6,7,9,3,2,?울 ?등?구 ?림동 779-7,,
5826,?림빌딩,37.4979778,126.8988876,3,9,7,5,9,3,3,10,1,6,5,6,10,6,5,9,5,5,2,7,5,3,6,5,2,?울 ?등?구 ?림동 692,
5743,?심?린?공??37.4984434,126.8972904,8,8,4,6,9,4,2,7,5,4,8,6,1,6,9,8,3,9,7,1,6,2,1,6,2,?울 ?등?구 ?림동 742,,
2363,기업???37.49806747614317,126.8982275,7,4,4,8,8,2,7,10,1,9,8,3,10,9,2,9,6,4,6,3,10,3,1,2,2,?울 ?등?구 ?림동 740-5,,
682,???주민자치센??37.498296110333214,126.8980564,10,10,4,8,1,7,5,2,9,10,5,7,5,10,2,5,10,6,1,9,3,8,9,5,2,?울 ?등?구 ?림동 740-4,,
2282,??빌??37.49907853568052,126.8968058,2,6,6,10,6,2,6,3,2,1,1,9,10,10,9,6,5,5,2,9,8,10,10,7,2,?울 ?등?구 ?림동 775-3,,
6293,?안빌딩 개방?장??37.5715365,126.9309364,7,8,4,7,3,2,1,9,3,10,4,4,10,10,4,10,3,5,3,6,4,1,8,7,0,?울 ??문구 ?희??203-1,,
6294,?희?인??복??설 개방?장??37.5722191,126.9235473,8,8,7,10,9,6,10,3,7,2,10,7,2,4,10,2,3,4,5,3,4,10,4,2,0,?울 ??문구 ?희??519-127,,
6296,?제3?공중?장??37.5875503,126.9363594,9,7,4,3,3,10,9,6,8,3,7,7,9,10,2,4,4,3,9,9,9,3,1,5,0,?울 ??문구 ?제??361-7,,
6300,?제1 공중?장??37.5876636,126.9554387,8,6,6,4,10,9,3,3,6,7,5,2,6,1,4,3,10,8,3,4,1,5,5,8,0,?울 ??문구 ?제????1-1,,
6299,??1????공영주차??개방?장??37.5988376,126.9471453,4,1,7,2,8,8,2,3,1,5,3,2,8,3,1,9,6,1,8,1,10,6,5,7,0,?울 ??문구 ????11-853,,
6298,??1 공중?장??37.5988376,126.9471453,10,5,4,9,5,10,9,4,7,2,8,5,4,8,8,9,7,2,10,4,1,1,2,3,0,?울 ??문구 ????11-853,,
6297,?향교회 개방?장??37.5839471,126.9367053,2,8,8,5,3,10,10,8,4,5,10,2,10,8,2,1,6,8,10,3,9,8,8,4,0,?울 ??문구 ?제??361-26,,
6295,?남?공중?장??37.574585,126.9255748,1,10,10,7,4,10,1,10,9,9,7,9,8,5,10,1,6,1,10,8,8,8,9,6,0,?울 ??문구 ?희??696,,
0,?성?포츠센??37.49238614627172,126.9098324,2,10,2,4,4,3,2,1,5,3,9,4,8,3,7,9,4,3,6,9,8,6,9,7,0,?울 ?작???방동 565-22,,
6287,?제1?주민센??37.587664,126.9449215,6,3,8,6,4,4,5,5,10,1,6,3,4,8,7,6,3,3,2,1,2,1,4,10,0,?울 ??문구 ?제??171-1,,
6292,주영빌딩 개방?장??37.5867786,126.9347433,7,10,5,3,10,7,2,4,4,5,8,2,10,6,7,2,9,9,1,8,6,3,6,1,0,?울 ??문구 ????265-11,,
6291,?진?? 개방?장??37.5598665,126.9708838,4,10,4,4,2,8,4,2,1,2,10,7,6,9,3,10,2,8,8,5,4,7,6,5,0,?울 중구 ?주?가 16-4,,
6290,k-?퀘어 ?촌,37.5563335,126.9348124,2,4,2,4,4,6,5,1,3,4,10,4,9,6,6,9,4,10,5,10,3,6,1,4,0,?울 ??문구 창천??72-12,
6289,?마??우주유???장??37.5822656,126.9266001,8,6,5,3,9,5,2,3,10,6,3,8,8,1,3,5,5,4,2,5,7,10,10,3,0,?울 ??문구 ????379-6,,
6288,문화촌주?소 ?장??37.595515,126.9485511,2,4,2,8,9,9,5,3,3,7,4,5,10,7,1,3,8,6,9,3,6,5,4,10,0,?울 ??문구 ?제??279-10,,
6286,?제1?자치회관(1??자),37.5832048,126.9484215,10,10,10,5,9,8,10,4,5,1,1,3,7,5,5,2,5,4,6,7,5,9,1,8,0,?울 ??문구 ?제??85-1,
6285,?제1?자치회관(2??자),37.5832048,126.9484215,8,1,10,8,10,1,8,9,3,1,8,10,8,2,10,7,3,7,2,8,10,8,2,1,0,?울 ??문구 ?제??85-1,
6284,?제1?자치회관(3??애??,37.5832048,126.9484215,1,9,6,7,1,5,4,10,6,1,4,4,9,7,7,7,2,1,5,10,3,5,2,4,0,?울 ??문구 ?제??85-1,
6283,?릉?서관,37.6047149,127.0107851,8,5,1,2,10,4,4,4,10,1,5,8,5,7,7,10,2,10,7,5,1,10,4,10,0,?울 ?북??릉??966-1,
6282,?북구?체육관,37.6085864,127.0422676,6,4,9,1,2,10,2,10,5,2,2,6,4,8,4,8,5,7,7,10,9,7,4,4,0,?울 ?북??월곡동 ??2-1,
6281,?북?보?서관,37.6049353,127.0505729,1,3,10,9,6,2,2,7,2,4,1,2,7,5,9,10,7,10,4,10,2,4,8,2,0,?울 ?북??월곡동 24-348,
6280,길음?승주차??37.6040589,127.0257971,2,8,1,6,3,10,1,8,10,4,8,9,4,9,1,5,4,4,6,6,2,8,7,6,0,?울 ?북??월곡동 104-112,,
6279,?곡??센??37.6106079,127.0403978,9,4,3,5,5,3,8,9,2,10,2,7,6,3,10,9,1,1,2,10,3,5,7,10,0,?울 ?북??월곡동 ??2-1,,
6278,?곡배드민턴체육관,37.6082795,127.0420529,8,7,2,2,2,8,1,1,7,6,10,5,6,6,1,7,3,9,4,4,7,5,4,4,0,?울 ?북??월곡동 ??2-86,
6301,맥도?드(?제?? 개방?장??37.5906261,126.9492733,2,5,10,1,4,4,7,5,9,7,10,8,10,1,8,3,4,2,7,8,1,7,3,6,0,?울 ??문구 ?제??468,,
6309,???공중?장??37.5738461,126.9231454,7,8,6,4,2,5,3,5,1,5,4,2,2,5,10,9,7,4,8,4,2,5,5,8,0,?울 ??문구 ??좌동 332-10,,
6302,?리아(?제?? 개방?장??37.5887763,126.9445702,2,5,2,2,10,4,6,10,1,10,6,9,1,1,1,2,5,7,10,1,4,10,2,8,0,?울 ??문구 ?제??253-8,,
6303,?? 공중?장??37.5740172,126.9527767,5,8,5,7,6,4,10,5,2,3,6,8,2,2,6,4,10,4,1,2,8,6,7,1,0,?울 ??문구 ??????5-63,,
6322,??문노?종?복지관,37.5680584,126.9591207,2,1,4,7,10,4,1,2,7,3,1,1,3,9,7,3,3,10,3,2,10,7,9,6,0,?울 ??문구 천연??117-3,
6323,?울???수?사?본부 본? ?장??37.5618511,126.9667618,10,4,6,4,1,5,8,5,9,8,4,2,2,9,2,3,4,1,8,7,2,8,5,5,0,?울 ??문구 ?동 27-1,,
6324,충정로역(2),37.5595485,126.963876,5,9,9,4,6,9,10,9,4,6,7,9,2,4,4,2,10,3,5,6,4,10,3,6,0,?울 ??문구 충정?가 319-1,
6325,?제??3),37.587691,126.9453229,7,2,7,5,1,1,9,1,2,3,5,7,10,10,7,2,8,1,1,2,3,7,9,8,0,?울 ??문구 ?제??161-1,
6326,무악?역(3),37.5824225,126.9505664,10,8,5,1,2,2,1,9,3,5,9,2,2,4,6,10,2,5,1,5,1,8,1,6,0,?울 ??문구 ?제??26-1,
6327,?립문역(3),37.5742169,126.9561692,9,9,8,2,4,8,9,7,7,1,2,9,6,2,7,6,5,9,9,7,4,8,8,4,0,?울 ??문구 ????101,
6328,충정로역(5),37.5607944,126.963313,6,2,8,2,7,6,8,4,3,9,8,8,2,10,4,6,4,3,5,3,10,2,9,3,0,?울 ??문구 충정?가 248-1,
6329,?왕?장 개방?장??37.5910695,126.9434702,8,4,5,10,8,7,9,3,9,7,9,9,10,8,4,2,8,2,4,1,4,10,8,1,0,?울 ??문구 ?제??298-7,,
6330,?독종합??개방?장??37.5825961,126.9365048,8,4,8,1,10,2,10,10,8,5,1,8,6,6,1,4,5,4,2,5,1,5,3,7,0,?울 ??문구 ????426,,
6331,가?울 공중?장??37.5706795,126.919983,5,5,4,4,9,2,4,8,7,8,9,4,1,1,8,7,5,5,4,10,4,5,1,9,0,?울 ??문구 ?희??530-2,,
6332,????공중?장??37.5590483,126.9348187,9,2,6,4,5,2,2,7,2,7,4,9,10,2,1,10,10,7,9,7,6,10,10,1,0,?울 ??문구 창천??52-111,,
6333,창천교회 개방?장??37.5591461,126.9376681,3,6,1,3,5,4,7,1,1,6,9,6,6,4,7,5,5,2,2,3,3,7,8,4,0,?울 ??문구 창천??47-2,,
6334,맥도?드(???? 개방?장??37.5585892,126.9366891,4,3,4,5,7,4,7,6,6,3,6,3,9,10,6,2,1,2,9,5,8,8,4,4,0,?울 ??문구 창천??33-12,,
6335,버거???세로점) 개방?장??37.5578892,126.9366963,4,8,6,1,9,5,6,1,5,7,4,4,8,1,7,6,4,1,1,5,2,2,7,7,0,?울 ??문구 창천??33-38,,
6336,?촌 ?르지???티 개방?장??37.5574218,126.9425697,9,2,4,2,5,3,4,9,7,7,6,9,6,10,1,5,7,10,9,10,2,9,6,3,0,?울 ??문구 ??동 104-5,,
6321,북???노?복지?터,37.5811916,126.9179078,4,10,9,8,8,4,8,3,9,1,3,5,10,9,3,8,9,6,6,1,4,7,7,10,0,?울 ??문구 북?좌동 5-106,
6320,?희?인??복??설,37.5722191,126.9235473,10,9,4,10,1,5,1,9,2,7,8,7,4,5,8,9,7,10,6,1,5,3,7,10,0,?울 ??문구 ?희??519-127,
6319,?왕?르?복지?터,37.5825768,126.9507647,10,5,2,1,1,10,5,4,10,10,6,1,5,8,6,7,6,7,10,7,3,2,9,5,0,?울 ??문구 ?제??453,
6310,??문종?사?복지관 ?장??본? 2?,37.5714701,126.9202752,3,5,6,4,6,9,4,2,10,7,4,8,6,8,7,4,1,5,8,4,2,6,8,5,0,?울 ??문구 ??좌동 115-63,
6304,?립공원 공중?장??37.5752858,126.9550192,10,7,9,1,1,7,7,5,8,6,2,1,3,7,2,3,6,10,1,2,3,1,10,8,0,?울 ??문구 ????101,,
6305,종근?빌??개방?장??37.5596465,126.9631101,10,5,7,4,8,10,4,9,6,9,1,4,3,2,1,6,10,1,8,10,5,8,2,9,0,?울 ??문구 충정?가 368,,
6306,골든브릿지빌딩 개방?장??37.563,126.965153,3,6,1,5,3,3,4,1,8,9,8,6,1,6,9,7,5,5,6,5,3,3,5,5,0,?울 ??문구 충정?가 222,,
6307,K1 REIT빌딩 개방?장??37.5619429,126.9644696,8,2,4,7,6,3,6,4,3,1,4,3,1,6,3,1,9,9,6,8,6,7,6,9,0,?울 ??문구 충정?가 463,,
6308,?창빌딩 개방?장??37.56053530000001,126.9626379,7,3,5,10,6,5,5,10,9,3,6,3,1,6,2,10,3,9,2,4,10,2,6,1,0,?울 ??문구 충정?가 63-1,,
6276,?릉1?커뮤니?센??37.6020862,127.0184074,4,4,1,10,3,8,10,1,1,2,10,8,10,7,2,7,2,6,1,4,3,9,1,1,0,?울 ?북??릉??16-182,,
6311,?선?농??개방?장??37.5586308,126.9391255,1,5,6,9,5,4,10,4,1,6,7,2,4,6,8,9,8,8,8,8,8,3,9,4,0,?울 ??문구 창천??5-38,,
6318,?일가?산??개방?장??37.5736525,126.9063614,9,10,6,3,1,5,2,7,4,2,5,8,7,10,9,2,6,2,6,10,2,6,1,9,0,?울 ??문구 북?좌동 392-27,,
6312,맥도?드(명???? 개방?장??37.5799302,126.9247485,8,3,5,2,7,10,2,3,2,3,6,3,7,5,6,10,10,10,5,9,5,9,1,10,0,?울 ??문구 ??좌동 324-3,,
6313,중앙근린공원 공중?장??37.5754699,126.9134006,9,4,1,1,5,4,10,4,7,1,1,4,8,6,8,3,10,4,4,3,9,4,5,10,0,?울 ??문구 북?좌동 107-1,,
6314,?제3 공중?장??37.5945316,126.9479107,5,9,7,9,5,7,2,5,5,5,1,6,3,4,10,4,10,6,7,6,7,9,9,2,0,?울 ??문구 ?제??278-50,,
6315,?연2?공중?장??37.577672,126.9318906,6,7,7,4,5,2,5,3,7,4,5,8,3,4,6,9,10,5,9,6,7,6,7,7,0,?울 ??문구 ?희??727,,
6316,문화?공??공중?장??37.5928868,126.9489057,10,3,9,1,2,6,3,5,6,6,7,9,8,4,6,7,9,9,3,7,3,3,5,1,0,?울 ??문구 ?제??273-192,,
6317,거꾸로어린이공원 공중?장??37.5852327,126.913293,1,8,6,9,5,2,6,8,10,7,8,10,9,2,5,2,10,4,10,4,7,3,3,1,0,?울 ??문구 북?좌동 338-21,,
6277,??서관,37.6117464,127.0107578,3,7,3,9,10,2,1,10,7,10,5,7,10,4,4,8,5,8,7,2,6,1,7,9,0,?울 ?북??릉??266-121,
6271,?월곡실버복지?터,37.6053861,127.0459172,7,8,7,6,3,1,5,10,7,6,7,8,5,8,6,6,6,5,6,1,4,3,2,5,0,?울 ?북??월곡동 ??6-11,
6275,?북?싱체육관,37.6016004,127.0381609,7,9,10,4,3,6,2,5,5,3,6,7,3,10,1,2,9,9,10,2,8,8,7,6,0,?울 ?북?종암??104-4,
6227,보문??공중?장??37.5864978,127.0196676,2,1,3,9,8,7,6,9,8,7,3,8,9,2,1,7,6,5,5,9,2,9,3,6,0,?울 ?북?보문??가 228,,
6220,문래??2),37.5182708,126.8945803,6,2,4,3,2,9,7,6,4,3,10,1,5,2,7,8,10,3,3,6,6,10,7,8,0,?울 ?등?구 문래??가 67,
6221,?등?구?(2),37.5253665,126.8968631,4,5,7,2,7,3,1,9,2,7,10,8,5,4,7,5,9,3,6,3,5,4,6,2,0,?울 ?등?구 ?산??가 270,
6222,?산??3),37.5352128,126.9026157,5,2,1,8,7,8,1,2,1,9,1,1,2,8,7,7,7,3,4,8,10,5,5,6,0,?울 ?등?구 ?산??가 311-1,
6223,?등?역,37.5167843,126.9072579,5,4,9,2,6,9,9,1,6,2,6,2,7,10,10,8,8,9,9,9,1,8,8,10,0,?울 ?등?구 ?등?동3가 33,
6224,?청B 지?상가,37.5657037,126.9768616,8,2,1,6,5,2,1,8,10,7,3,1,6,4,9,4,9,2,9,10,5,4,3,3,0,?울 중구 ?동 5-5,
6225,?산?장공영주차???장??37.5598389,126.9888215,8,7,9,2,3,9,1,5,10,2,1,3,4,10,9,8,9,9,6,8,9,2,5,9,0,?울 중구 ?장??4-1,,
6226,?릉???객?장??37.602667,127.013494,5,3,8,2,2,2,8,7,6,7,9,2,2,10,4,7,6,1,7,6,5,3,8,5,0,?울 ?북??릉??966-330,,
6228,?암??공중?장??지???37.586296,127.029137,8,3,9,2,4,7,6,3,1,5,1,4,7,10,1,8,2,3,1,2,8,5,3,9,0,?울 ?북??암??가 146-1,,
6274,?북?애?복지관,37.6046451,127.0393912,1,8,5,2,8,3,1,4,6,10,6,2,5,8,4,6,3,1,10,4,6,8,5,6,0,?울 ?북??월곡동 222-10,
6229,?암??공중?장??지???37.586296,127.029137,10,4,8,1,3,3,3,1,7,9,10,5,9,2,5,2,4,5,3,10,7,6,9,2,0,?울 ?북??암??가 146-1,,
6230,?방주유??개방?장??37.5855561,127.031846,9,1,10,9,4,2,4,2,6,7,1,3,4,5,6,6,10,5,3,10,2,2,5,6,0,?울 ?북??암??가 82-1,,
6231,?곡??공중?장??37.5971779,127.0392309,3,1,7,7,4,2,6,4,9,7,3,7,7,2,8,2,2,10,7,2,10,1,3,4,0,?울 ?북?종암??3-712,,
6232,?선??주??터,37.5908385,127.0146658,7,2,9,9,4,4,5,9,3,9,1,5,6,1,9,7,9,8,7,4,3,3,5,3,0,?울 ?북??선??가 349-1,
6233,?북구보건소,37.6026426,127.0395181,10,4,4,4,4,4,10,6,8,5,7,1,6,1,7,10,9,8,7,1,1,3,6,7,0,?울 ?북??월곡동 46-1,
6234,?북?체?37.607281,127.029324,8,3,2,7,7,10,5,8,6,10,3,8,1,4,9,9,5,7,6,4,10,10,8,1,0,?울 ?북??월곡동 88-3,,
6235,?릉2??주??터,37.6044197,127.0111319,3,2,7,7,2,6,7,6,7,9,5,5,4,2,8,3,6,3,1,1,8,6,6,1,0,?울 ?북??릉??966-125,
6219,?강??37.5235991,126.9222137,8,4,2,9,4,6,8,3,6,9,5,6,9,8,4,2,9,8,3,4,10,10,3,9,0,?울 ?등?구 ?의?동 2-6,,
6218,?의?역(2),37.5235991,126.9222137,10,3,1,3,10,10,6,6,3,3,10,1,1,3,6,6,1,8,3,5,5,10,9,4,0,?울 ?등?구 ?의?동 2-6,
6217,?의?역(1),37.5235991,126.9222137,4,10,2,1,10,3,4,1,5,8,9,4,2,10,1,9,2,8,9,8,9,2,10,1,0,?울 ?등?구 ?의?동 2-6,
6216,??사?역(2),37.5282622,126.9071503,1,5,4,2,2,9,4,7,3,10,5,8,7,5,8,10,1,3,2,6,10,3,5,1,0,?울 ?등?구 ?산??121-224,
6201,?6가 지?상가,37.5597641,127.0052075,7,1,3,5,1,3,2,1,4,10,3,9,9,8,2,7,7,8,5,5,6,4,8,6,0,?울 중구 ?충??가 188-11,
6202,?현지?상가,37.5644665,126.9789123,6,8,1,2,8,8,2,1,2,4,5,1,4,3,6,1,4,10,5,5,5,7,4,8,0,?울 중구 ??문로2가 9-9,
6203,??문??상가,37.5608373,126.9770665,4,9,3,2,6,4,7,4,1,8,4,8,4,5,5,2,7,6,10,7,3,9,9,3,0,?울 중구 ??문로4가 24-1,
6204,?위????개방?장??37.6102531,127.056905,9,8,8,9,2,7,2,3,4,5,2,5,4,4,5,7,1,1,9,1,4,1,7,3,0,?울 ?북?????349-1,,
6205,?길9구역공원,37.5153215,126.9170112,10,8,5,2,1,5,2,8,8,6,4,7,10,5,7,5,2,9,3,1,8,7,6,8,0,?울 ?등?구 ?길??50-8,
6206,?방천???,37.5059554,126.8974633,7,10,2,8,10,7,10,10,3,2,10,7,8,10,2,1,3,7,9,9,10,7,3,3,0,?울 ?등?구 ?림??258-3,
6207,?학?주민센??37.5673091,127.0212702,7,7,9,5,1,3,4,6,10,5,8,2,2,3,4,3,1,10,1,10,5,7,3,6,0,?울 중구 ?학??1010,,
6208,?현?주민센??37.5572304,126.9793308,3,10,4,3,9,6,2,5,10,2,7,4,3,6,5,5,5,8,10,1,4,3,5,9,0,?울 중구 ?현??가 164,,
6209,?네마빌???장??37.5991599,127.0147151,6,3,1,3,6,9,3,8,8,9,8,9,1,2,4,2,7,9,1,9,9,4,2,8,0,?울 ?북??암??538-59,,
6210,?롱?갈??구?????방,37.5459227,126.8864834,2,2,5,8,5,2,3,10,4,6,3,1,6,10,8,2,10,6,4,2,3,8,6,4,0,?울 ?등?구 ?화??1-22,
6211,?암지구?,37.5866997,127.0166041,5,1,7,8,5,10,8,3,2,6,8,3,2,8,3,7,8,4,7,2,5,7,3,7,0,?울 ?북?보문??가 1-1,
6212,?유?역,37.5406198,126.8949352,3,7,3,8,1,7,6,10,9,10,8,7,2,3,10,3,7,5,7,10,9,6,5,2,0,?울 ?등?구 ?평??가 124-1,
6213,?산??1),37.5346602,126.9028802,4,2,1,9,4,2,8,5,2,5,8,5,6,1,3,6,5,5,2,9,4,3,4,4,0,?울 ?등?구 ?산??가 298,
6214,?산??2),37.5346602,126.9028802,4,1,1,4,4,9,2,6,8,8,8,10,1,1,6,2,6,3,4,9,4,8,8,1,0,?울 ?등?구 ?산??가 298,
6215,??사?역(1),37.5282622,126.9071503,8,2,3,7,7,7,9,1,7,4,6,10,1,1,4,7,9,9,7,6,5,5,5,2,0,?울 ?등?구 ?산??121-224,
6236,?곡1??주??터,37.6105027,127.0357682,4,4,3,1,6,10,4,1,4,10,6,6,6,4,10,5,2,3,10,6,2,8,1,2,0,?울 ?북??월곡동 225-7,
6237,길음1??주??터,37.6104746,127.0193531,2,3,1,7,8,6,4,4,4,2,3,7,10,1,3,2,10,1,4,3,8,5,4,1,0,?울 ?북?길음??1281-7,
6238,?선보건지??37.5935931,127.0157551,7,6,5,5,8,10,5,7,7,9,5,10,1,1,9,7,5,5,5,10,9,9,5,3,0,?울 ?북??소문동6가 146,,
6257,?희주유???장??37.569286,126.9325313,10,6,8,3,10,4,5,9,1,1,4,4,4,5,1,4,3,5,1,9,7,8,2,7,0,?울 ??문구 ?희??89-7,,
6259,광호주유???장??37.5806854,126.9364634,6,7,3,4,9,5,10,8,3,3,4,2,1,8,1,9,2,5,10,8,7,9,3,1,0,?울 ??문구 ????431,,
6260,?안??? ?보주유???장??37.5650007,126.9299305,7,3,5,6,1,3,6,9,4,6,4,2,8,1,6,1,8,7,2,3,2,2,4,1,0,?울 ??문구 ?희??194-32,,
6261,?제?주?소 ?장??37.5835495,126.9501318,10,6,6,1,7,7,4,4,8,1,1,9,1,3,4,2,3,3,3,10,9,2,5,7,0,?울 ??문구 ?제??22-3,,
6262,?립문주?소 ?장??37.5841955,126.9494124,5,7,9,7,8,2,4,9,4,4,2,6,1,6,1,10,1,7,4,9,8,7,6,3,0,?울 ??문구 ?제??103-9,,
6263,?창?이?? ?제지???장??37.5889951,126.9435157,4,3,5,9,8,2,3,2,9,3,6,6,6,6,10,1,4,7,5,8,7,1,1,10,0,?울 ??문구 ?제??330-61,,
6264,?춘?,37.5964904,126.9538599,9,4,7,2,5,10,1,6,3,3,6,3,2,5,10,4,10,1,8,1,2,4,7,2,0,?울 ??문구 ?제??287-207,
6265,복주?근린공??37.5606203,126.9556927,9,3,10,2,10,9,4,8,6,9,7,10,5,9,3,1,8,9,6,10,8,6,6,3,0,?울 ??문구 북아?동 1016-1,,
6266,봉원마을마당,37.5695691,126.9456662,10,7,8,10,5,1,10,7,1,5,9,6,9,5,9,8,4,4,6,2,4,3,7,6,0,?울 ??문구 봉원??51-9,
6267,???마??37.6008682,126.9445256,9,5,3,1,9,9,2,10,6,9,10,2,6,5,7,9,9,10,1,7,10,3,3,3,0,?울 ??문구 ????14-22,,
6268,북한?초??37.6057178,126.9500027,5,5,9,8,6,1,1,3,8,1,10,7,4,9,5,6,9,6,10,5,1,10,8,5,0,?울 ??문구 ????8-669,,
6269,?박골??37.6026924,126.9476968,7,2,8,1,10,5,1,7,4,6,8,6,6,2,4,6,9,7,5,10,6,7,4,8,0,?울 ??문구 ????10-183,,
6270,?제1?자치회관(4??자),37.5832048,126.9484215,9,6,3,6,2,5,4,10,6,2,8,3,7,6,5,10,6,8,8,8,5,6,5,10,0,?울 ??문구 ?제??85-1,
6338,??백화??개방?장??37.5559992,126.9358069,5,1,9,10,7,7,4,3,10,3,4,10,4,3,8,3,10,3,8,4,7,5,7,4,0,?울 ??문구 창천??30-33,,
6272,?북구립미술관,37.5948078,126.9948694,9,8,1,10,4,6,10,3,6,8,9,3,1,4,6,2,9,5,2,7,7,6,9,3,0,?울 ?북??북??246,
6273,?북?무??37.5880073,127.0108018,6,9,9,5,10,5,3,6,5,1,6,9,2,2,7,1,5,7,6,2,3,1,2,6,0,?울 ?북??선??가 3-2,,
6258,?세주유???장??37.5734611,126.935919,7,5,4,7,2,5,8,4,1,3,4,10,9,2,9,8,7,8,6,5,4,2,9,3,0,?울 ??문구 ?희??76-11,,
6256,?중?에?비???교지???장??37.5598219,126.9268491,7,2,7,1,7,3,7,3,7,1,5,6,10,10,1,6,7,4,8,6,3,4,6,1,0,?울 ??문구 창천??512-3,,
6239,종암??주??터,37.5990053,127.0352017,9,5,5,10,7,1,3,10,2,1,6,9,5,5,10,6,6,9,7,5,7,2,7,3,0,?울 ?북?종암??16-8,
6255,?일가?산???장??37.5736525,126.9063614,4,10,7,2,5,7,9,4,3,5,7,2,2,10,3,6,5,3,1,2,7,8,6,2,0,?울 ??문구 북?좌동 392-27,,
6240,?북구의??37.5967542,127.0261862,10,10,7,9,9,8,2,9,9,8,3,8,7,5,8,10,8,10,9,10,4,7,5,4,0,?울 ?북?종암??54-182,,
6241,????주??터,37.6130426,127.0614713,10,2,5,2,3,2,4,10,3,8,5,3,8,5,1,9,1,1,9,4,3,9,8,3,0,?울 ?북?????384-3,
6242,길음지구?,37.6106292,127.0192457,10,7,5,7,4,9,3,4,9,9,7,5,7,10,6,3,2,4,10,3,5,5,1,7,0,?울 ?북?길음??1281-5,
6243,?릉2?출??37.6045307,127.0106875,9,7,5,6,8,2,2,6,4,4,1,3,6,4,3,5,5,3,6,5,7,7,5,5,0,?울 ?북??릉??966-174,,
6244,?위2??주??터,37.6123476,127.0545097,6,6,10,9,7,10,2,2,3,1,2,7,3,7,3,10,6,1,9,8,1,6,2,1,0,?울 ?북??위??69-54,
6245,?암2??주??터,37.5979761,127.0105489,3,9,10,6,7,7,10,6,3,2,2,6,3,4,3,2,1,10,3,4,6,4,10,10,0,?울 ?북??암??603-1,
6246,?촌?주민센??37.5578096,126.9395561,4,10,9,4,5,3,1,9,7,4,2,10,5,10,4,3,9,2,4,8,6,2,4,4,0,?울 ??문구 창천??4-62,,
6247,?제2?주민센??37.5860597,126.9493607,7,6,4,7,5,1,1,8,9,1,6,7,5,2,2,6,3,5,10,2,9,2,10,9,0,?울 ??문구 ?제??459-4,,
6248,?촌?랑고래,37.5568194,126.9355206,5,3,9,4,5,4,6,8,7,2,2,4,9,6,6,5,8,4,7,2,3,3,3,6,0,?울 ??문구 창천??57-18,
6249,?????주민센??1?37.5801356,126.9341863,6,9,5,7,7,2,9,6,5,2,10,2,10,4,6,6,8,7,9,5,5,3,8,10,0,?울 ??문구 ????273-10,,
6250,?정주유???장??37.5756685,126.9255332,9,5,3,9,5,7,9,4,8,9,5,1,9,4,7,2,9,5,5,8,8,6,2,6,0,?울 ??문구 ??좌동 329-34,,
6251,???사????주유???장??37.5675895,126.9188473,1,9,7,4,1,1,2,9,2,8,10,6,7,8,5,6,5,4,10,6,10,2,9,2,0,?울 ??문구 ?희??446-4,,
6252,구도?주?소 ?꺼??장??37.5660451,126.9249055,2,4,10,10,2,1,9,5,7,3,10,1,8,6,5,9,6,3,5,10,4,4,6,8,0,?울 ??문구 ?희??220-55,,
6253,?촌??주유???장??37.5610129,126.9415334,9,9,2,2,6,7,2,6,3,1,3,4,1,5,1,10,4,4,2,2,4,10,2,9,0,?울 ??문구 ??동 16-7,,
6254,문화?랑주유???장??37.595515,126.9485511,2,10,9,2,9,2,2,7,3,5,5,6,10,2,1,4,1,7,2,6,8,2,9,2,0,?울 ??문구 ?제??279-10,,
6337,?촌??개방?장??37.5597943,126.9419176,4,1,10,4,2,5,1,9,7,10,2,5,8,4,2,3,2,3,1,6,1,10,6,1,0,?울 ??문구 ?촌??74-12,,
6350,본전?? 개방?장??37.56963270000001,126.9156398,6,9,2,10,8,2,5,9,8,10,9,5,4,7,9,1,10,7,8,3,7,1,4,9,0,?울 ??문구 ??좌동 291-28,,
6339,SK BROADBAND 개방?장??37.55839539999999,126.9343872,8,10,5,5,10,6,10,7,7,1,5,1,1,7,3,10,7,5,4,7,3,1,7,7,0,?울 ??문구 창천??53-88,,
6340,르메?에르신??개방?장??37.5564243,126.9400291,2,2,7,8,6,3,10,3,1,3,10,7,8,2,1,2,1,7,9,4,10,5,6,7,0,?울 ??문구 창천??20-26,,
6431,?속?무?2,37.5495886,127.081578,8,9,5,1,8,4,8,4,6,6,8,4,2,4,5,10,2,6,5,8,5,2,1,4,0,?울 광진??동 18,
6432,?속?무?3,37.5495886,127.081578,5,7,10,10,2,5,10,5,10,5,7,9,5,3,6,1,4,10,4,7,5,1,8,3,0,?울 광진??동 18,
6433,물새?화?실,37.5495886,127.081578,6,2,7,1,1,2,1,2,9,2,4,6,6,5,6,3,6,1,3,9,5,1,1,2,0,?울 광진??동 18,
6434,물??장?장??37.5495886,127.081578,10,3,9,8,9,5,9,5,10,9,3,10,3,4,5,7,4,5,8,2,2,2,2,1,0,?울 광진??동 18,,
6435,?물?화?실,37.5495886,127.081578,1,2,8,1,8,4,1,9,3,9,4,9,7,8,5,8,1,7,4,7,4,5,3,1,0,?울 광진??동 18,
6436,모험?라?장??37.5495886,127.081578,10,4,2,5,8,10,7,3,10,2,3,5,5,8,7,8,1,7,6,6,7,7,5,2,0,?울 광진??동 18,,
6437,?문?장??37.5495886,127.081578,3,10,1,9,2,6,7,1,6,7,7,1,6,6,5,4,4,4,8,5,8,1,1,3,0,?울 광진??동 18,,
6438,?물?화?실,37.5495886,127.081578,9,5,4,3,8,8,3,5,5,7,2,7,2,7,2,7,7,10,5,7,5,7,9,3,0,?울 광진??동 18,
6439,?문?장??37.5495886,127.081578,10,8,9,4,7,3,7,1,6,4,1,2,7,3,7,4,1,2,8,2,3,5,9,6,0,?울 광진??동 18,,
6440,???물관?장??37.5495886,127.081578,4,1,9,9,10,5,6,4,4,2,4,7,5,3,2,6,4,9,1,3,8,3,5,1,0,?울 광진??동 18,,
6441,꿈마루화?실,37.5495886,127.081578,6,9,7,7,8,3,7,3,4,4,10,2,5,6,9,5,9,6,3,9,8,5,9,5,0,?울 광진??동 18,
6442,?상?라?장??37.5495886,127.081578,9,3,10,3,5,1,7,9,6,8,2,10,4,5,4,9,6,4,1,1,1,6,4,1,0,?울 광진??동 18,,
6443,구의?구공원?장??37.5470002,127.0959932,5,4,9,7,1,1,8,1,8,3,10,2,6,6,7,3,9,6,6,10,4,1,4,1,0,?울 광진?구의??164-5,,
6444,민도빌딩,37.5375471,127.0863769,1,1,8,7,9,9,5,7,8,4,1,8,1,4,2,6,2,4,3,2,6,5,4,6,0,?울 광진?구의??246-3,
6445,강?????스???37.5353757,127.0934453,10,3,8,4,7,5,6,2,7,2,5,8,9,8,4,10,3,3,8,1,1,10,3,4,0,?울 광진?구의??546-11,,
6430,?속?무?1,37.5495886,127.081578,3,7,4,9,8,3,8,4,10,10,8,1,4,1,10,7,10,8,9,2,3,3,4,1,0,?울 광진??동 18,
6429,?원빌딩,37.532905,127.0918869,1,5,9,8,2,5,5,6,9,2,7,5,7,7,10,1,7,7,3,9,9,7,9,9,0,?울 광진?구의??599-8,
6428,구의문화?실,37.5495886,127.081578,6,9,6,8,7,9,5,3,9,6,3,1,4,3,9,10,9,5,5,8,4,6,4,8,0,?울 광진??동 18,
6419,?차?역(5),37.554252,127.0863486,9,9,2,10,8,3,7,1,6,5,10,1,6,8,1,6,5,7,8,7,5,10,2,1,0,?울 광진??동 256-16,
6413,구의3?도??,37.5380043,127.0919649,6,1,5,4,3,1,7,2,8,10,7,9,10,7,4,10,3,1,6,1,4,1,7,4,0,?울 광진?구의??587-29,
6414,광진구청 ???장??37.5453581,127.1006356,4,10,2,5,8,2,5,8,7,1,4,6,4,1,1,5,1,7,9,3,4,1,2,1,0,?울 광진?광장??401-24,,
6415,건??구??2),37.540734,127.0689614,4,3,1,8,4,10,1,1,5,5,4,8,3,7,5,10,8,4,9,1,8,5,8,2,0,?울 광진??양??7-3,
6416,구의??2),37.5380692,127.0890292,4,9,6,9,3,10,9,8,3,3,6,1,2,5,4,8,2,10,9,5,10,5,9,3,0,?울 광진?구의??245-24,
6417,강???2),37.5353816,127.0945451,9,6,5,2,4,4,2,10,3,1,3,3,6,6,4,6,6,1,2,8,9,5,1,9,0,?울 광진?구의??546-6,
6418,군자??5),37.5567294,127.0805348,2,4,4,6,2,4,2,10,7,7,5,7,7,3,5,4,10,9,4,7,2,4,5,6,0,?울 광진??동 275-5,
6420,광나루역(5),37.5454285,127.1036523,3,6,5,9,2,6,7,2,2,8,7,8,1,8,9,10,5,4,8,5,10,3,6,6,0,?울 광진?광장??238,
6427,?니?장?장??37.5495886,127.081578,7,3,3,1,9,4,4,7,6,6,6,1,6,4,8,3,1,5,8,9,9,10,1,7,0,?울 광진??동 18,,
6421,중곡??7),37.5632225,127.0827532,5,7,1,9,3,7,6,3,1,5,4,3,9,3,2,8,3,1,5,2,10,9,5,9,0,?울 광진?중곡??273-4,
6422,?린??공원??7),37.5471331,127.0739626,3,1,2,1,4,5,1,3,6,5,6,8,3,5,9,6,6,9,2,2,1,9,6,5,0,?울 광진??양??164-1,
6423,건??구??7),37.5405069,127.0705832,1,5,2,10,9,8,1,7,4,6,10,8,7,5,9,8,8,7,5,2,4,10,6,7,0,?울 광진??양??6-1,
6424,?섬?원지??7),37.5319488,127.0670071,8,1,10,6,2,5,2,2,4,3,9,2,9,6,3,7,2,1,1,1,4,7,3,10,0,?울 광진??양??73-2,
6425,분수??장??37.5495886,127.081578,2,9,1,7,6,1,2,5,8,5,9,6,8,8,7,9,1,5,8,5,8,5,6,10,0,?울 광진??동 18,,
6426,버섯?장??37.5495886,127.081578,7,8,8,3,10,3,3,4,4,4,1,10,5,5,9,3,8,4,4,8,10,6,2,7,0,?울 광진??동 18,,
6446,루마?팅구의??37.5406607,127.0895422,9,6,8,7,6,2,3,2,9,10,7,2,5,7,3,7,1,8,3,6,7,3,4,9,0,?울 광진?구의??222-18,,
6447,?의?역(3),37.5215695,126.9243115,6,8,10,7,5,7,1,10,7,6,8,6,4,8,8,7,5,2,1,1,10,4,7,9,0,?울 ?등?구 ?의?동 3,
6448,공주?당(1?,37.5541581,127.074419,2,2,6,4,7,8,9,3,5,10,5,1,10,1,9,9,2,6,2,4,1,10,9,5,0,?울 광진?군자??64-1,
6474,?커?상가,37.5505245,127.1065516,3,5,8,2,10,10,7,8,7,9,5,2,4,8,10,8,1,1,3,6,9,2,8,7,0,?울 광진?광장??145-8,
6468,?도?동???교통),37.56552,127.0868211,6,6,5,4,6,5,2,4,1,9,6,3,10,7,6,6,9,4,7,6,3,6,6,6,0,?울 광진?중곡??18-27,
6469,???주유??37.5645477,127.086996,1,5,6,6,9,6,4,7,3,5,7,2,2,9,9,5,4,7,9,6,5,8,5,10,0,?울 광진?중곡??18-70,,
6470,벧엘?서침?교회,37.536294,127.079383,2,9,4,9,5,5,1,8,8,10,1,2,10,8,2,6,4,1,7,4,4,6,8,4,0,?울 광진??양??230-9,
6471,조양?장,37.5388906,127.0673902,2,10,6,8,6,7,4,5,10,7,7,3,3,6,10,1,9,5,7,8,3,9,9,5,0,?울 광진??양??6-20,
6472,?????찌개,37.5417748,127.0667476,7,2,8,4,2,2,6,2,8,9,6,9,8,10,9,4,6,1,3,4,8,7,3,3,0,?울 광진??양??48-23,
6473,?울복?관(PARADIA),37.5491096,127.1086502,8,2,2,7,4,10,5,3,5,5,7,1,3,8,10,4,7,6,5,1,2,2,10,5,0,?울 광진?광장??148-6,
6475,?성빌딩,37.548496,127.106796,8,1,10,1,2,7,1,2,9,7,1,7,6,2,10,2,9,9,1,8,3,5,3,3,0,?울 광진?광장??333,
6466,?립??,37.5508019,127.0976391,1,3,8,2,3,2,10,2,6,7,3,9,3,9,5,2,8,5,6,7,7,10,4,2,0,?울 광진?구의??16-3,
6476,강평 주유??37.5476119,127.1072051,10,6,6,5,9,8,10,1,1,5,6,10,9,1,6,6,2,3,10,8,9,9,5,6,0,?울 광진?광장??336-1,,
6477,진넥?오?세??37.5413438,127.097272,1,10,3,8,6,10,7,9,1,10,5,10,8,4,6,3,8,9,3,1,3,10,1,10,0,?울 광진?광장??470-3,,
6478,??엔?피?텔,37.5385588,127.0919721,2,8,4,6,2,10,3,10,10,5,2,7,5,7,1,4,3,3,1,10,4,7,9,6,0,?울 광진?구의??218-15,
6479,?양 주유??37.5381271,127.0758985,2,4,5,4,4,3,5,3,9,10,6,7,5,8,9,3,5,3,3,6,6,9,4,6,0,?울 광진??양??227-4,,
6480,진퉁?장?37.5408666,127.0671171,7,7,10,1,3,8,2,6,3,1,2,9,8,4,4,10,6,8,4,2,3,6,6,7,0,?울 광진??양??8-4,,
6481,?신빌딩,37.5420462,127.0651456,1,1,6,5,7,5,4,6,3,2,2,5,7,3,10,4,9,4,6,5,9,3,5,2,0,?울 광진??양??49-9,
6467,?마 주유??37.5597487,127.0878553,5,4,10,10,7,4,5,4,6,2,7,3,8,4,5,8,10,9,10,7,10,2,3,2,0,?울 광진?중곡??58-17,,
6465,?? 주유??37.5370079,127.0831638,4,9,6,4,9,8,8,3,3,2,7,10,9,1,6,2,9,4,8,2,2,10,1,1,0,?울 광진??양??779-7,,
6449,?호 주유??37.5456356,127.1037341,1,9,7,6,5,9,5,10,5,1,8,1,6,4,7,5,10,6,1,3,8,2,7,1,0,?울 광진?광장??239-6,,
6456,?해??37.5350287,127.0793395,1,5,5,10,7,5,8,6,8,10,4,4,2,5,10,2,10,6,5,5,2,4,5,8,0,?울 광진??양??612-36,,
6450,?안 주유??37.5509,127.0892347,10,6,7,5,9,4,4,4,7,9,1,4,8,8,5,6,1,9,8,6,2,7,8,1,0,?울 광진?구의??75-25,,
6451,비봉빌딩,37.5543504,127.0857568,8,5,9,1,8,10,8,5,5,10,10,10,9,6,7,7,9,5,7,9,3,10,5,4,0,?울 광진??동 247-1,
6452,?원?빌??37.5556158,127.0844741,3,2,6,7,1,10,4,10,5,9,7,9,5,4,10,6,8,1,10,9,4,6,9,1,0,?울 광진?중곡??132-24,,
6453,광명빌딩,37.5552747,127.0833533,4,6,2,3,5,4,1,9,4,6,10,9,7,2,10,6,5,10,4,9,5,3,10,9,0,?울 광진??동 237-11,
6454,?동 주유??37.5555551,127.082455,7,3,9,6,1,3,5,10,2,9,4,2,10,9,6,4,9,10,6,5,5,1,8,8,0,?울 광진??동 236-4,,
6455,?림?당,37.5367826,127.0765266,8,9,6,10,6,8,1,6,10,4,10,1,3,8,10,8,7,7,5,4,6,4,3,7,0,?울 광진??양??227-136,
6457,??병원,37.5351884,127.0834641,1,5,7,3,3,7,6,8,3,9,6,6,9,5,4,8,10,5,3,1,1,3,3,1,0,?울 광진??양??627-3,
6464,?양?피?텔,37.5398297,127.0829161,1,6,6,10,9,5,7,4,4,4,1,1,8,4,7,3,8,8,1,3,9,7,5,5,0,?울 광진??양??767-4,
6458,?해????37.5346281,127.0836945,6,1,1,9,6,3,6,3,1,4,8,5,5,3,3,7,4,9,5,9,5,3,8,7,0,?울 광진??양??628-19,,
6459,?림?업,37.5331769,127.0853828,8,9,10,5,2,3,4,6,7,2,4,1,8,5,5,8,3,3,8,7,6,10,10,6,0,?울 광진??양??680-24,
6460,?나부?산,37.5321802,127.0851804,8,1,2,2,5,3,7,3,4,6,7,2,1,4,7,4,8,7,2,5,2,10,5,5,0,?울 광진??양??679-31,
6461,?호 주유??37.5312783,127.0858325,3,7,2,10,7,10,10,7,1,3,2,2,4,7,4,6,5,5,3,9,4,4,6,10,0,?울 광진??양??677-5,,
6462,?원교회,37.5436461,127.0849747,7,10,7,10,3,1,8,8,8,10,10,1,2,1,9,1,9,9,3,6,1,4,1,10,0,?울 광진?구의??236-2,
6463,?도브래?오?스??37.53999830000001,127.0834887,4,8,8,10,4,8,1,4,5,2,4,2,1,8,1,8,1,2,9,7,6,5,7,6,0,?울 광진?구의??251-34,,
6412,?양4?도??,37.5341158,127.0662593,3,3,3,6,3,6,5,3,7,6,3,2,2,7,10,10,6,3,8,2,3,2,3,5,0,?울 광진??양??63-1,
6411,광장?실?배???장,37.5444726,127.1000623,6,2,8,3,8,3,1,1,2,10,8,5,8,6,10,2,7,1,9,4,1,5,1,10,0,?울 광진?광장??577-3,
6410,?동공영주차??37.554043,127.0802397,5,1,10,2,6,9,5,4,9,10,10,6,5,7,1,3,9,8,10,5,2,7,10,8,0,?울 광진??동 205,,
6365,백련배수지,37.5833379,126.9300611,5,6,5,10,1,5,9,5,5,10,3,6,2,1,4,4,9,5,5,5,2,8,10,6,0,?울 ??문구 ??????26-133,
6359,모래?설?탕 개방?장??37.5772467,126.9282246,2,7,3,5,7,6,4,7,2,3,3,6,1,9,1,9,8,10,10,10,5,1,7,2,0,?울 ??문구 ????415-42,,
6360,?,37.5809887,126.9541591,10,8,7,3,9,9,10,9,7,1,7,3,6,1,8,1,4,10,4,10,2,4,3,3,0,?울 ??문구 ?제??40-46,
6361,무궁?동??37.5850421,126.9537841,2,10,2,8,1,8,1,1,5,3,3,1,9,4,5,1,5,3,9,7,3,1,1,1,0,?울 ??문구 ?제??13-62,,
6362,??마당,37.5913747,126.9500656,8,9,9,3,7,7,2,7,5,4,9,2,4,2,3,4,3,10,10,2,1,5,3,8,0,?울 ??문구 ?제??10-9,
6363,?제근린공원,37.5950984,126.9523644,4,2,10,3,9,2,7,7,9,6,5,1,10,8,5,10,7,5,3,6,8,7,7,2,0,?울 ??문구 ?제??454,
6364,궁동근린공원,37.570006,126.9229419,3,10,4,10,9,9,1,2,5,6,2,4,9,6,7,5,3,8,4,6,5,1,1,10,0,?울 ??문구 ?희??537-35,
6366,?원??,37.5877655,126.9318141,1,6,6,5,6,10,5,10,6,9,3,1,7,6,4,1,8,7,3,7,3,8,2,5,0,?울 ??문구 ????265-166,
6357,봉원1 공중?장??37.57071579999999,126.9461674,7,8,3,2,4,8,8,4,5,5,7,1,6,2,1,2,10,7,10,5,3,1,7,3,0,?울 ??문구 봉원??19,,
6367,?연체험?습??37.5910774,126.9330538,3,3,6,10,2,10,3,1,1,10,6,4,4,9,6,4,3,9,8,10,6,3,3,8,0,?울 ??문구 ??????11-314,,
6368,복주물약?터,37.5670339,126.9519003,5,7,9,8,6,1,9,9,3,7,5,7,9,2,9,10,5,10,7,1,5,3,4,1,0,?울 ??문구 북아?동 1-818,
6369,??집쉼??37.5819779,126.9428535,8,2,8,1,5,10,8,2,3,9,6,7,6,5,4,10,7,2,3,5,7,2,3,3,0,?울 ??문구 ?제??322-95,,
6370,공원관리사무소,37.5794831,126.9380023,10,8,5,8,8,1,9,1,1,5,9,2,3,1,8,8,3,10,7,4,5,9,3,2,0,?울 ??문구 ?희??167-10,
6371,??1?자치회관,37.593224,126.9438981,8,4,3,4,2,8,10,3,3,3,10,6,4,5,5,3,8,1,2,1,7,5,6,10,0,?울 ??문구 ????71-626,
6372,??1?주민센??37.5988641,126.9471446,10,9,8,1,10,9,1,9,6,2,9,5,6,6,5,8,8,5,8,3,2,5,8,3,0,?울 ??문구 ????11-853,,
6358,??2 공중?장??37.5780878,126.9297717,7,7,2,9,7,4,3,5,9,6,7,10,7,4,10,7,9,10,4,4,2,1,3,6,0,?울 ??문구 ????405-1,,
6356,북??공중?장??37.5822817,126.9093647,2,9,10,3,7,2,7,2,1,9,6,1,2,10,1,9,6,4,2,4,10,1,9,8,0,?울 ??문구 북?좌동 344-31,,
6374,???담?서관,37.6017549,126.9490409,7,8,9,10,9,2,9,6,1,4,2,2,3,10,2,4,6,2,9,7,6,1,10,10,0,?울 ??문구 ????11-7,
6347,?우주유???장??37.5822656,126.9266001,2,5,10,9,7,9,7,9,10,6,7,10,7,9,4,7,1,3,6,8,1,4,4,7,0,?울 ??문구 ????379-6,,
6341,?남?피?텔 개방?장??37.5563386,126.93925,5,6,7,6,2,7,4,5,3,7,4,1,7,10,4,6,5,1,8,10,10,3,4,1,0,?울 ??문구 창천??20-41,,
6342,버거???촌?? 개방?장??37.5587015,126.9342139,6,10,5,4,1,4,5,2,2,1,7,8,7,9,5,6,2,5,8,4,4,10,2,7,0,?울 ??문구 창천??53-71,,
6343,?중?장 개방?장??37.5696837,126.9160986,7,10,9,3,3,3,4,9,9,10,10,5,1,9,8,9,10,7,5,6,3,6,8,1,0,?울 ??문구 ??좌동 110-4,,
6344,?제1?자치회관(3??자),37.5832048,126.9484215,3,5,5,4,9,10,1,5,3,9,6,8,7,3,10,4,5,2,4,1,3,2,7,1,0,?울 ??문구 ?제??85-1,
6345,??1????공영주차??37.5985398,126.9495382,3,9,5,9,6,3,10,3,7,9,6,3,4,4,5,6,4,9,4,10,9,10,1,8,0,?울 ??문구 ????9-164,,
6346,?제견인차량보???37.5906351,126.9406737,3,8,7,10,2,8,7,2,7,3,1,1,6,10,5,9,8,9,10,8,5,2,3,7,0,?울 ??문구 ?제??294-84,,
6348,(?가?울???주?소 ?장??37.5732673,126.9224318,3,2,7,2,2,3,9,5,1,10,6,2,3,1,7,4,2,4,9,2,3,9,3,3,0,?울 ??문구 ??좌동 386-3,,
6355,충정???개방?장??37.5598507,126.964065,10,7,2,7,9,9,10,1,4,2,3,3,9,3,5,7,7,7,5,7,2,5,9,10,0,?울 ??문구 충정?가 464,,
6349,모래?시??개방?장??37.5696837,126.9160986,8,4,10,3,9,1,1,9,5,10,6,8,8,9,7,6,8,2,8,4,2,8,5,9,0,?울 ??문구 ??좌동 110-4,,
6199,?당C 지?상가,37.5684938,127.0193571,8,10,9,5,7,9,6,7,5,6,8,8,7,9,7,7,4,3,10,2,4,6,8,1,0,?울 중구 ?학??119,
6351,?제2 공중?장??37.59096359999999,126.9530534,2,5,2,8,6,4,3,1,10,1,1,1,3,4,10,6,10,5,2,3,3,3,5,5,0,?울 ??문구 ?제??9-82,,
6352,?리????제?? 개방?장??37.591688,126.9453706,4,5,1,6,6,2,6,1,10,8,9,9,9,2,1,1,8,2,8,5,7,7,9,7,0,?울 ??문구 ?제??266-56,,
6353,SK리챔??피?텔 개방?장??37.5613963,126.9662764,4,1,2,3,10,4,3,6,3,4,7,8,6,9,6,7,3,2,4,7,4,10,8,7,0,?울 ??문구 ?동 116,,
6354,?리아(??문역?? 개방?장??37.5598507,126.964065,6,3,6,7,5,10,1,7,1,8,2,10,3,4,4,8,9,2,2,6,2,1,6,9,0,?울 ??문구 충정?가 464,,
6373,??1?제1공영주차??37.5985398,126.9495382,2,8,3,3,4,8,8,7,4,5,6,4,10,4,3,10,3,9,10,1,8,8,10,2,0,?울 ??문구 ????9-164,,
6375,??문형무소??관,37.5742169,126.9561692,8,4,5,8,1,9,4,9,6,7,6,8,7,7,1,10,6,10,5,3,8,3,10,9,0,?울 ??문구 ????101,
6409,구의1??공영주차??37.5382756,127.0878682,9,8,3,5,5,2,2,2,9,10,4,3,3,5,6,2,6,10,10,10,3,10,1,7,0,?울 광진?구의??243-78,,
6401,기린빌딩 개방?장??37.6053052,127.0247666,10,8,5,7,4,9,7,7,9,5,2,5,10,9,1,6,8,2,1,9,4,5,7,10,0,?울 ?북?길음??1080,,
6395,??좌새롬어린이?서관,37.5783326,126.9240342,2,4,4,8,4,6,9,4,3,3,5,1,2,10,4,9,8,8,7,8,6,10,9,10,0,?울 ??문구 ??좌동 342-34,
6396,창업지?센??37.5913957,126.9424801,6,9,9,8,2,1,5,8,4,9,3,2,7,5,10,9,2,7,10,3,8,7,9,6,0,?울 ??문구 ?제??294-46,,
6397,?선주유??개방?장??37.5879888,127.005574,4,9,6,3,9,7,2,10,2,10,4,5,9,5,1,1,10,1,4,8,3,6,10,1,0,?울 ?북??선??가 12-1,,
6398,?평빌딩 개방?장??37.6057124,127.0303452,8,9,4,10,9,4,4,8,9,7,3,3,8,2,1,8,6,7,4,7,10,9,2,4,0,?울 ?북??월곡동 88-548,,
6399,?암교회 개방?장??37.5893939,127.0223546,8,5,2,5,8,1,2,5,2,7,3,4,6,1,3,8,3,6,9,8,5,8,10,3,0,?울 ?북??암??가 361-2,,
6400,?동?목빌딩 개방?장??37.5634458,126.9859768,5,5,2,6,3,3,9,1,3,8,5,8,8,5,7,3,7,9,9,7,10,5,7,5,0,?울 중구 명동2가 1-1,,
6402,광진?보?서관 1??장??37.5510808,127.1106061,3,6,8,10,9,1,2,6,6,1,6,5,4,2,2,6,9,10,2,1,5,8,3,3,0,?울 광진?광장??112,,
6393,?무?역??,37.5742169,126.9561692,5,5,1,6,8,5,7,10,5,10,4,8,7,9,10,8,6,10,1,10,2,4,6,2,0,?울 ??문구 ????101,
6403,광진구청 ?정지?동 1??장??37.5384193,127.0824491,3,9,1,6,8,10,5,8,3,9,6,10,8,1,5,2,10,3,5,10,7,4,8,8,0,?울 광진??양??777,,
6404,광진구청 종합?황???장??37.5384193,127.0824491,3,2,3,3,9,10,3,1,5,10,10,8,10,9,10,2,9,4,6,2,2,4,10,3,0,?울 광진??양??777,,
6405,광진구청 ?전관리동 1??장??37.5384193,127.0824491,1,9,4,2,2,4,8,8,8,4,1,3,9,9,7,6,6,4,10,2,5,1,2,2,0,?울 광진??양??777,,
6406,광진구청 민원복???1??장??37.5384193,127.0824491,6,9,9,4,7,7,4,3,10,1,10,2,7,3,4,9,7,4,6,2,2,3,1,2,0,?울 광진??양??777,,
6407,광진구보건소,37.5384193,127.0824491,8,8,9,2,4,7,2,3,8,5,5,2,7,7,9,2,2,7,6,8,8,9,6,5,0,?울 광진??양??777,
6408,구의2?주?? 공용주차??37.5530855,127.092896,5,5,9,2,3,10,4,3,3,4,5,6,7,4,9,6,8,7,1,6,3,3,1,5,0,?울 광진?구의??30-9,,
6394,?진?기?도??,37.5742169,126.9561692,3,2,9,3,5,2,6,6,7,7,2,10,4,7,3,3,10,3,4,4,7,6,7,7,0,?울 ??문구 ????101,
6392,북아?문?체?센??37.5618573,126.9554332,7,3,10,2,9,2,8,1,2,6,5,7,3,3,7,8,7,6,4,4,1,3,10,8,0,?울 ??문구 북아?동 1012-2,,
6376,궁동체육관,37.5715118,126.9253209,5,4,4,3,4,3,9,6,6,8,9,10,4,7,8,1,2,1,9,10,2,5,3,1,0,?울 ??문구 ?희??188-21,
6383,??문구건강가?다문화가족??센??3?터),37.5761442,126.938638,7,5,4,1,2,2,3,1,4,8,3,5,5,9,2,9,3,2,8,6,6,4,10,3,0,?울 ??문구 ?희??742,
6377,?제1?자치회관(4??자),37.5832048,126.9484215,10,5,1,2,10,6,3,4,8,1,5,3,4,8,7,1,4,7,9,1,8,5,3,6,0,?울 ??문구 ?제??85-1,
6378,????주민센??1?37.57844840000001,126.9238774,3,10,7,2,8,3,3,10,6,1,4,9,6,5,5,9,6,4,6,8,10,2,3,1,0,?울 ??문구 ??좌동 342-7,,
6379,천연?주민센??37.5711149,126.9590574,5,1,4,6,4,10,1,7,8,3,3,4,5,2,7,10,7,5,8,1,2,1,3,1,0,?울 ??문구 ?천??101,,
6380,?촌문화발전??37.5579585,126.9397595,9,9,7,6,4,8,8,9,9,10,10,3,6,3,10,10,10,8,10,1,7,7,6,2,0,?울 ??문구 창천??4-113,,
6381,??문구 ?문??족??센??37.58298509999999,126.9128737,5,2,1,1,8,9,1,6,4,10,5,1,5,9,7,2,9,3,2,9,5,3,8,9,0,?울 ??문구 북?좌동 333-5,,
6382,??문구건강가?다문화가족??센??2?터),37.5832048,126.9484215,10,7,10,9,3,7,9,10,1,8,2,7,2,2,4,7,9,3,1,8,2,4,1,6,0,?울 ??문구 ?제??85-1,
6384,"??문구?아
종합지?센??
???장??,37.57304329999999,126.9199512,10,5,8,9,1,9,2,3,5,3,8,5,9,7,2,7,8,7,4,3,8,10,2,4,0,?울 ??문구 ??좌동 385-4
6391,?제배드민턴??37.5947111,126.949254,1,8,9,9,10,9,3,5,4,2,10,8,7,2,9,4,7,7,4,7,5,3,2,1,0,?울 ??문구 ?제??280-10
6385,?화?자??교종합?회복?관,37.5625607,126.9474535,5,7,5,5,2,2,8,9,6,9,3,8,9,3,7,7,3,1,2,3,2,6,6,1,0,?울 ??문구 ??동 11-1
6386,??문종?사?복지관,37.5712633,126.9198419,5,9,10,1,6,4,2,3,1,4,2,1,1,9,1,2,4,1,8,4,6,6,5,2,0,?울 ??문구 ??좌동 139-4
6387,??종합?회복?관,37.5954015,126.9464398,2,8,8,5,8,2,9,6,4,6,4,6,6,9,10,1,3,8,2,9,5,3,4,9,0,?울 ??문구 ????48-20
6388,?제3?주민센??37.59376110000001,126.9497306,5,4,3,9,6,1,8,2,10,7,2,2,6,7,10,7,2,7,3,2,4,9,1,4,0,?울 ??문구 ?제??7-13
6389,??문문?체?회관,37.5832608,126.9303605,5,2,4,6,3,4,5,9,3,7,6,10,8,8,1,6,3,8,8,2,1,7,7,7,0,?울 ??문구 ????310-1
6390,궁둥?체??,37.5715118,126.9253209,3,6,2,5,9,9,6,10,6,1,7,10,7,5,2,9,6,7,4,1,7,6,6,7,0,?울 ??문구 ?희??188-21
6200,?5가 지?상가,37.5605514,127.0057072,10,9,9,4,8,6,1,4,8,6,1,2,4,9,3,9,5,4,8,7,1,9,10,10,0,?울 중구 ?충??가 62-3
6188,?산골한?마??중앙?장??37.5583775,126.9939831,7,1,9,7,1,3,8,7,4,1,5,4,4,5,8,4,7,9,2,6,4,1,5,9,0,?울 중구 ?동2가 84-1
6198,?당B 지?상가,37.5684938,127.0193571,5,9,5,5,9,10,6,4,7,6,2,1,4,1,4,9,3,3,6,6,10,9,5,5,0,?울 중구 ?학??119
5980,금천?체?37.4701007,126.89848,5,8,8,4,9,3,5,6,5,4,4,6,8,7,8,3,4,3,4,5,4,4,7,9,0,?울 금천??산??286-9
6000,??로동주??터,37.5666987,126.9913506,7,5,1,6,8,4,2,2,9,8,7,7,10,2,1,8,7,3,8,5,1,3,1,9,0,?울 중구 ???가 65-13
6001,?충?주민센??37.5619088,127.0078442,5,5,8,7,8,10,7,8,1,4,3,6,8,8,6,4,3,8,10,2,8,6,5,10,0,?울 중구 ?충??가 37-14
6002,중림?주민센??37.5542175,126.9634093,1,10,7,8,8,3,1,1,10,4,6,10,4,3,6,10,5,3,1,2,7,10,5,8,0,?울 중구 만리??가 273
6003,??주민센??37.5570846,127.0146584,9,10,7,7,10,7,1,4,3,4,4,8,4,9,10,5,1,2,9,10,7,7,1,7,0,?울 중구 ?당??333-17
6004,?동주??터,37.5601579,126.9955791,2,10,1,2,3,9,9,2,8,7,8,6,1,6,4,2,7,3,1,9,4,7,7,6,0,?울 중구 ?동2가 78-2
6005,중구?회,37.5685625,127.0060087,8,8,7,4,9,10,9,10,10,7,7,6,4,10,6,7,8,9,9,1,6,6,3,6,0,?울 중구 ???가 18-14
6006,중구보건??37.5646077,127.0150846,7,1,10,6,8,8,2,3,9,6,1,2,2,5,1,8,5,7,4,1,6,8,10,7,0,?울 중구 무학??50-5
6007,?동?공??37.5678726,126.9808435,9,3,5,7,4,7,6,8,1,2,9,2,8,9,2,8,1,7,5,5,4,2,6,2,0,?울 중구 ?동 53-8
6008,묵정?린?공??37.5637775,126.9997991,1,1,1,4,10,5,9,8,6,3,6,1,10,1,5,9,9,3,3,10,8,3,10,3,0,?울 중구 충무?가 21
6009,?싹마을마당,37.5595636,127.0120554,1,1,9,3,9,3,4,8,6,5,1,2,2,7,2,4,5,9,7,5,8,9,3,2,0,?울 중구 ?당??386-66
6010,?소문역?공??37.5605524,126.96935,3,9,6,5,4,6,9,2,10,8,6,10,6,10,1,8,6,1,7,2,7,3,9,1,0,?울 중구 ?주?가 16-4
6011,?동근린공원,37.5680019,126.9715351,2,4,7,8,2,9,5,6,2,2,8,1,9,4,7,5,8,9,4,3,1,7,10,2,0,?울 중구 ?동 15-3
6012,?련?근린공??37.5673944,127.0035451,5,1,4,8,3,9,6,10,3,4,2,6,3,5,1,9,10,7,8,1,7,7,1,8,0,?울 중구 ???가 40-3
6013,?당1??공중?장??37.5639088,127.0136071,2,8,1,4,2,1,10,2,5,8,6,5,8,3,10,6,1,2,4,6,7,3,8,8,0,?울 중구 ?당??236-488
6014,?당2??공중?장??37.5613795,127.0137989,3,2,10,8,9,9,3,8,1,3,9,5,8,2,4,3,1,2,4,5,4,10,1,2,0,?울 중구 ?당??298-74
5999,?수?주민센??37.5524744,127.0089848,1,9,8,10,5,9,4,7,3,9,8,10,7,9,10,5,2,5,1,6,3,10,7,10,0,?울 중구 ?당??366-15
5998,?당?주민센??37.5613947,127.0137389,9,3,3,2,1,8,2,4,1,2,10,2,6,6,8,8,4,6,1,6,7,9,6,4,0,?울 중구 ?당??304-733
5997,?당5?주민센??37.5651081,127.0218748,5,8,5,2,2,9,9,4,3,9,2,4,9,10,10,2,8,9,8,8,5,3,9,7,0,?울 중구 ?당??150-7
5988,?울??문경찰서,37.5548232,126.9736623,3,7,9,6,10,4,4,9,4,1,3,6,7,7,8,9,6,5,5,5,9,7,3,1,0,?울 중구 ??문로5가 561
5982,금천?인종합복?관,37.450211,126.8977757,5,6,2,10,7,2,9,6,10,8,7,1,7,9,3,1,8,7,5,5,10,1,8,1,0,?울 금천??흥??558-1
5983,kt 금천?화?37.4463754,126.902965,6,8,1,1,2,4,4,9,5,3,9,6,5,3,9,7,6,3,10,1,4,7,6,6,0,?울 금천??흥??985-14
5984,???성발전?터,37.46315329999999,126.9060916,2,9,5,5,3,9,1,8,2,5,4,6,4,8,9,5,2,1,5,8,5,1,3,5,0,?울 금천??흥????139-2
5985,?남주유??37.46680020000001,126.8900451,3,3,2,8,10,3,6,9,2,2,1,8,6,2,10,8,1,2,4,1,10,2,1,4,0,?울 금천??산??1001-5
5986,?태?유??37.4767974,126.8991596,3,2,4,1,2,10,6,3,2,7,2,4,4,10,4,5,9,8,4,8,8,1,4,3,0,?울 금천??산??967
5987,?리아?십리점,37.5652586,127.0542121,2,2,9,1,8,9,5,4,3,5,7,9,4,9,2,8,1,7,10,7,7,8,1,4,0,?울 ?동??답??62-2
5989,충무?19?전?터,37.5621541,126.9929176,8,4,2,6,1,5,6,10,6,3,2,2,8,8,5,5,6,9,8,2,10,8,8,2,0,?울 중구 충무?가 40-6
5996,?공?주민센??37.5624224,126.9770437,4,7,9,9,2,2,2,5,5,4,2,7,10,6,7,2,3,6,5,8,4,5,5,1,0,?울 중구 북창??20-5
5990,?현119?전?터,37.5583045,126.9834639,9,10,8,10,10,3,7,4,1,2,4,10,8,9,5,5,4,10,5,6,9,1,10,6,0,?울 중구 ?현??가 33-1
5991,?울중구?37.5637354,126.9977576,3,5,2,1,6,9,8,8,2,7,9,10,9,6,5,2,6,8,2,10,4,9,3,2,0,?울 중구 ????120-1
5992,광희?주민센??37.564461,127.0050407,6,2,4,6,7,8,10,3,7,10,8,2,3,8,9,2,2,2,4,7,4,10,9,6,0,?울 중구 광희??가 252
5993,?산?주민센??37.5542597,127.0082859,6,9,5,6,6,9,6,10,1,6,1,3,9,10,6,9,8,4,6,7,6,4,10,1,0,?울 중구 ?당??432-24
5994,?화?주민센??37.5592001,127.019505,5,1,1,7,4,2,8,10,7,1,5,3,10,10,7,10,1,7,6,9,1,2,6,4,0,?울 중구 ?당??850
5995,명동주??터,37.5600563,126.985827,5,9,5,4,3,7,5,2,6,5,7,2,5,2,6,9,9,5,10,3,4,8,9,8,0,?울 중구 ?산??가 9-6
6015,???공중?장??37.5608163,127.0132996,10,9,2,7,3,1,3,7,8,7,8,4,1,10,3,5,3,4,1,2,4,4,9,6,0,?울 중구 ?당??297-29
6016,?학??공중?장??37.5675304,127.018124,8,7,5,3,7,1,10,2,3,7,3,10,8,6,7,3,8,3,6,5,1,5,9,9,0,?울 중구 ?학??755
6017,?수?공?주차장 ?장??37.5522341,127.0133311,8,6,10,9,10,8,2,6,5,5,5,10,4,1,7,5,4,4,8,10,1,2,9,5,0,?울 중구 ?당??349-234
6043,?울??출소,37.5562987,126.9718126,7,5,5,2,4,1,6,4,8,2,1,1,9,4,5,8,9,3,5,7,4,10,5,8,0,?울 중구 봉래??가 122-28
6037,???가??2) ?장??37.5665899,126.9982939,6,10,6,8,5,1,7,10,9,5,5,9,4,9,5,2,6,2,8,6,5,9,4,4,0,?울 중구 ???가 267-1
6038,??문역?문?공?역(2) ?장??37.5665899,126.9982939,2,3,7,7,9,1,2,2,8,9,4,5,3,5,10,10,7,5,6,9,5,6,2,10,0,?울 중구 ???가 267-1
6039,?당??2) ?장??37.5613874,126.9962601,3,7,1,1,6,4,8,7,9,10,10,8,7,3,9,5,8,6,4,8,10,9,9,10,0,?울 중구 ?동2가 32-19
6040,???가??3) ?장??37.5665899,126.9982939,5,9,5,3,8,9,9,7,3,3,2,7,9,8,1,4,2,10,1,7,6,4,9,10,0,?울 중구 ???가 267-1
6041,?평로파출소,37.5680342,126.9800551,2,9,10,8,7,4,9,8,8,9,2,9,7,6,5,10,2,3,3,9,7,2,4,6,0,?울 중구 ?동 46
6042,?소문파출소,37.5638544,126.975449,2,10,3,5,4,3,6,3,10,3,10,1,3,8,4,6,1,10,4,10,6,7,4,8,0,?울 중구 ?소문동 24
6044,?현?출??37.5584538,126.9786466,6,7,4,4,4,1,7,5,9,8,1,4,4,6,2,7,7,9,9,10,10,5,1,2,0,?울 중구 ?현??가 194-15
6035,??로입구역(2) ?장??37.5665899,126.9982939,9,1,9,2,6,3,4,10,5,3,7,9,1,4,8,5,1,7,10,7,2,9,5,6,0,?울 중구 ???가 267-1
6045,??문파출소,37.5594216,126.9762398,8,8,2,10,4,5,8,4,9,7,5,2,9,8,5,4,1,5,5,2,1,7,6,3,0,?울 중구 ?창??51-1
6046,중림?출??37.5578847,126.9671311,2,1,9,5,8,1,9,2,3,10,8,3,2,3,2,3,5,1,8,1,3,9,8,8,0,?울 중구 중림??203
6047,명동?출??37.5635808,126.983966,10,1,8,6,8,7,2,4,9,8,2,8,6,4,5,1,3,9,2,5,2,10,6,8,0,?울 중구 명동2가 50-13
6048,?울중?경찰??본?,37.5635946,126.9897355,9,7,3,10,4,4,8,2,3,2,2,10,7,3,9,5,10,10,7,7,5,6,5,9,0,?울 중구 ???가 62-1
6049,?울중?경찰??민원??37.5635946,126.9897355,8,7,6,3,1,1,10,2,3,4,7,5,7,2,8,6,2,9,10,5,5,1,3,6,0,?울 중구 ???가 62-1
6050,??지구?,37.5664707,127.0039404,5,1,1,10,9,3,1,1,4,9,10,9,3,5,3,9,7,8,4,5,3,9,10,7,0,?울 중구 ???가 72-1
6036,???가??2) ?장??37.5665899,126.9982939,8,4,3,7,3,5,5,7,7,10,2,7,4,8,9,8,10,2,1,4,9,5,6,8,0,?울 중구 ???가 267-1
6034,?청??2)(지??? ?장??37.5635692,126.9755275,4,5,9,4,3,8,10,3,5,7,10,6,5,10,9,1,7,4,10,9,9,2,4,3,0,?울 중구 ?소문동 90-1
6018,?산공영주차???장??37.5563343,127.0159693,10,1,6,10,1,4,7,8,6,6,8,8,5,10,10,7,6,7,8,8,8,5,2,7,0,?울 중구 ?당??333-260
6025,?기?체?공??주차???장??37.5555781,126.9647417,4,5,3,3,5,8,1,1,5,5,6,7,6,6,2,3,2,8,1,10,6,3,2,8,0,?울 중구 만리??가 6-1
6019,버티공영주차???장??37.549079,127.0059326,6,7,7,6,1,10,10,4,2,6,3,8,7,7,4,10,7,8,1,4,7,3,1,2,0,?울 중구 ?당??432-1693
6020,?곽공영주차???장??37.5505203,127.0048314,5,6,8,5,1,8,1,5,6,9,3,9,8,4,1,1,5,1,6,2,2,1,10,3,0,?울 중구 ?당??432-2026
6021,?산?트공영주차???장??37.5516509,127.004411,1,10,1,3,9,2,6,9,7,1,7,9,8,9,3,8,2,4,8,2,3,2,9,10,0,?울 중구 ?당??432-612
6022,충현공영주차???장??37.5521615,127.0056913,4,4,2,1,8,7,1,10,7,7,4,5,9,4,1,6,8,9,3,6,7,4,3,7,0,?울 중구 ?당??432-462
6023,?산?공?주차장 ?장??37.554541,127.0084989,8,10,5,9,3,4,4,5,10,9,3,6,5,2,3,6,6,9,4,8,6,1,8,4,0,?울 중구 ?당??432-1584
6024,문화공영주차???장??37.5565118,127.0110972,10,8,3,8,3,1,2,3,4,10,10,5,5,4,3,9,5,2,3,9,6,6,2,5,0,?울 중구 ?당??381-27
6026,?산?공?주차장 ?장??37.5592279,126.9855828,4,5,1,5,6,5,10,10,2,3,4,5,10,7,3,10,8,2,1,1,1,3,6,5,0,?울 중구 ?산??가 30-4
6033,?청??2)(지??? ?장??37.5635692,126.9755275,2,2,3,1,5,9,8,5,3,7,7,10,10,9,6,7,5,10,5,3,2,1,1,6,0,?울 중구 ?소문동 90-1
6027,?동공영주차???장??37.5565997,126.9958704,6,2,5,2,6,4,5,3,2,1,2,2,8,10,7,8,9,3,4,10,6,8,2,4,0,?울 중구 ?동3가 62-12
6028,?충공영주차???장??37.5599773,127.0013342,6,1,3,1,9,3,9,9,10,9,10,3,1,2,3,1,6,3,1,4,2,5,1,3,0,?울 중구 ?충??가 193-39
6029,?당???주차장 ?장??37.5653258,127.0207421,4,10,10,3,4,8,8,7,3,7,10,2,2,3,6,3,1,4,6,10,8,3,2,9,0,?울 중구 ?당??140-29
6030,중구구??? 공영주차???장??37.5685625,127.0060087,10,4,3,3,8,8,2,9,2,7,10,4,8,2,6,3,5,9,3,5,2,4,3,9,0,?울 중구 ???가 18-14
6031,?울??1) ?장??37.563054,126.9755254,9,2,9,10,9,7,1,6,8,3,10,6,7,2,7,9,10,8,9,9,9,3,2,5,0,?울 중구 ?소문동 143
6032,?청??1) ?장??37.563054,126.9755254,2,8,10,7,6,6,3,5,4,10,5,2,10,8,4,4,10,2,2,8,3,9,1,6,0,?울 중구 ?소문동 143
5981,?울?흥?우체국,37.4582161,126.9050538,6,6,5,9,6,9,5,4,6,4,2,3,7,4,2,2,2,8,2,10,8,6,9,8,0,?울 금천??흥??852-55
5979,금천?무??37.4779463,126.8997275,5,7,3,9,9,1,10,5,5,7,1,8,4,3,3,2,5,5,8,7,5,8,8,7,0,?울 금천??산??953-9
6052,?수지구?,37.5521517,127.0123555,1,1,10,8,10,9,10,7,5,2,9,7,2,7,1,5,4,1,5,5,8,2,6,10,0,?울 중구 ?당??844-3
5978,가?문?센??37.4757683,126.8829928,1,7,4,7,7,9,3,1,6,2,1,3,3,5,5,1,10,1,4,5,7,7,3,4,0,?울 금천?가?동 345-9
5927,금천체육공원,37.4678118,126.9096546,10,9,6,5,8,10,7,5,9,10,6,6,3,5,4,7,5,9,1,3,5,5,8,9,0,?울 금천??산????198-3
5928,?기????37.4633349,126.9073874,7,6,5,4,10,2,1,6,6,1,5,6,10,3,9,5,8,1,6,10,2,4,2,4,0,?울 금천??흥????138-3
5929,??공??37.4521039,126.9069952,3,8,2,3,2,8,10,4,4,9,10,1,2,4,8,3,6,3,6,1,4,7,5,9,0,?울 금천??흥??836
5930,?산3???목?광??37.4763665,126.9019023,5,1,9,10,3,10,9,5,6,8,3,6,10,5,4,3,7,6,4,8,1,3,5,7,0,?울 금천??산??971
5931,감로천생?공???장??37.4697183,126.9084167,1,5,8,10,9,8,7,4,4,3,1,10,8,8,5,3,10,3,5,5,8,9,1,1,0,?울 금천??산????197
5932,?압???장??37.4520858,126.9247721,6,8,6,6,1,3,9,6,9,9,5,1,2,4,6,8,5,3,8,6,5,3,5,9,0,?울 금천??흥????98
5933,??42초소 ?장??37.446297,126.9098039,2,8,6,5,4,1,3,3,6,2,9,2,7,9,5,6,3,6,8,5,7,3,5,7,0,?울 금천??흥????77-13
5934,박?배드민턴???장??37.4399713,126.9106447,1,6,8,4,8,2,9,1,7,1,6,8,5,9,10,4,4,9,9,7,5,3,10,5,0,?울 금천??흥????6-7
5935,?산?연공원 ?장??37.473588,126.9072984,1,2,1,2,10,10,9,8,1,1,4,3,4,5,6,2,7,7,7,2,8,5,4,8,0,?울 금천??산????89-5
5936,만수??장??37.4744736,126.9091728,7,2,10,6,4,1,8,6,5,10,3,4,7,6,10,9,4,7,9,10,1,2,7,1,0,?울 금천??산????8
5937,방수?비?디광장 ?장??37.4470318,126.9114678,9,5,4,1,2,8,8,3,5,8,9,4,10,6,8,7,6,1,7,5,3,7,8,6,0,?울 금천??흥??412-5
5938,?암?솔??장??37.4503568,126.9252342,3,5,3,4,3,5,7,3,1,6,6,8,5,2,10,1,5,9,5,1,8,7,7,3,0,?울 금천??흥????93-1
5939,?산배드민턴???장??37.4432026,126.9124257,10,2,3,4,8,7,5,5,9,8,10,3,8,8,2,10,9,6,7,7,7,1,4,10,0,?울 금천??흥????73-1
5940,?산?니?장 ?장??37.4737212,126.9064131,1,2,8,7,5,8,5,6,2,8,10,7,2,5,1,9,6,9,3,6,10,8,7,1,0,?울 금천??산????89-7
5941,치유?숲 ?장??37.4545169,126.9221358,2,6,9,3,5,5,7,9,6,3,1,10,3,10,4,6,2,5,5,10,5,3,5,10,0,?울 금천??흥????100-1
5926,금나?중?공??37.4586815,126.8928863,1,8,10,8,1,2,7,8,7,2,6,10,7,6,10,1,5,6,2,2,8,5,4,9,0,?울 금천??산??448-6
5925,?산근린공원,37.4636729,126.8841433,7,8,5,8,7,10,7,5,8,7,3,9,5,7,5,5,9,9,10,6,2,1,9,9,0,?울 금천??산??1086
5924,?린?물??장,37.4643255,126.8870414,5,5,5,2,7,1,4,7,2,9,4,3,5,1,8,8,2,3,8,4,6,8,7,4,0,?울 금천??산??668-47
5915,기아??37.440017,126.9006394,10,8,8,9,10,2,8,8,6,10,10,5,1,8,5,7,5,6,4,3,1,10,10,3,0,?울 금천??흥??766-26
5909,?협?산지??37.4636389,126.8978812,9,1,5,3,5,7,9,7,5,10,1,7,6,5,2,1,3,2,7,5,6,5,2,2,0,?울 금천??산??1054-28
5910,?호빌딩,37.482132,126.883918,5,9,1,8,10,1,4,2,10,6,10,6,1,6,5,2,3,10,9,3,8,3,6,10,0,?울 금천?가?동 43-6
5911,매봉???속?서관,37.5458644,127.0110143,2,8,5,8,9,9,8,10,6,6,10,4,7,8,3,3,2,1,6,8,5,6,4,7,0,?울 ?동??수??528-6
5912,KLP??주유??37.5539975,127.0703898,2,2,2,7,5,8,9,4,8,9,8,9,4,5,5,7,5,2,6,8,3,10,3,6,0,?울 ?동??정??83
5913,?명합?시??37.454359,126.9017955,5,5,7,2,5,1,10,6,9,8,5,1,2,4,1,7,9,10,8,9,2,4,4,5,0,?울 금천??흥??884-4
5914,종합?,37.45681630000001,126.8954085,10,6,10,1,6,1,5,1,3,3,1,2,9,7,4,4,1,9,8,7,4,10,2,2,0,?울 금천??흥??1020
5916,?흥??37.4516683,126.8951977,5,4,9,6,1,6,5,8,10,8,10,4,6,9,10,4,2,7,6,9,7,10,7,6,0,?울 금천??흥??784-21
5923,?신?파????37.45910689999999,126.8892238,3,4,3,2,4,8,2,4,1,5,5,9,6,3,4,8,1,3,10,3,1,9,5,4,0,?울 금천??산??719-14
5917,금천구청????37.455292,126.8936047,7,5,7,8,4,1,10,7,9,7,9,5,8,2,2,7,10,9,6,9,6,8,2,8,0,?울 금천??산??732-3
5918,?전거보관??37.4567094,126.8930371,3,8,5,9,5,7,1,3,7,7,7,8,9,9,8,9,2,4,5,10,10,2,10,1,0,?울 금천??산??727-2
5919,금천?37.4658469,126.8856968,10,2,2,1,7,7,6,4,8,1,10,9,9,5,6,5,6,3,3,10,5,6,3,10,0,?울 금천?가?동 707-3
5920,???노?????37.4683103,126.8835906,9,10,5,2,3,8,5,7,4,6,3,10,1,10,7,6,4,6,5,9,1,2,4,2,0,?울 금천?가?동 340-5
5921,철산?37.4784556,126.8758019,6,10,4,5,9,10,6,7,7,3,9,3,3,3,3,3,8,6,4,4,2,6,5,3,0,?울 금천?가?동 614-45
5922,광명??37.4832537,126.8739116,2,6,1,6,1,8,7,1,3,9,9,7,10,4,8,2,7,1,4,3,2,6,5,6,0,?울 금천?가?동 538-11
5942,금천종합복????37.4496132,126.9145056,3,8,1,3,10,2,9,5,7,8,8,7,2,1,1,8,5,3,10,4,10,6,10,4,0,?울 금천??흥??267-9
5943,?흥4?청?년?서??37.4573834,126.9064376,6,8,10,9,7,4,1,3,3,4,3,4,7,4,8,6,6,5,8,7,10,3,1,7,0,?울 금천??흥??815
5944,금천문화??1?,37.4466287,126.9041882,8,6,6,8,5,7,7,3,4,1,8,3,6,8,1,8,2,6,5,5,2,4,5,3,0,?울 금천??흥??937-2
5970,?흥4??주??터,37.4589441,126.9061487,5,9,5,4,10,3,3,7,1,6,4,1,7,2,3,3,4,4,9,4,10,6,2,9,0,?울 금천??흥??812-38
5964,?산2??주??터,37.46309129999999,126.9035506,9,9,5,6,8,7,8,1,6,1,3,10,3,4,4,8,8,2,6,2,3,9,7,4,0,?울 금천??산??1043-51
5965,?산3??주??터,37.4751471,126.9031766,10,7,7,5,3,3,1,5,8,1,3,8,4,10,5,3,9,4,9,6,7,9,1,7,0,?울 금천??산??973-17
5966,?산4??주??터,37.46756,126.9021491,2,7,7,3,6,7,6,5,5,3,5,9,8,3,9,9,10,8,8,5,2,1,5,1,0,?울 금천??산??1022
5967,?흥1??주??터,37.4535561,126.9032569,2,5,8,3,2,6,2,10,4,10,5,9,8,7,10,1,3,3,9,3,4,7,3,9,0,?울 금천??흥??886-6
5968,?흥2??주??터,37.4496132,126.9145056,7,7,2,1,2,9,5,7,7,3,6,5,2,5,3,7,4,10,9,7,2,3,2,7,0,?울 금천??흥??267-9
5969,?흥3??주??터,37.4402761,126.9058266,2,4,1,7,10,2,10,3,2,1,3,3,2,3,5,2,9,9,7,3,1,8,1,1,0,?울 금천??흥??956-3
5971,?흥5??주??터,37.4523532,126.9083015,1,10,4,4,5,10,8,10,5,2,8,8,6,3,4,1,9,3,4,5,4,1,5,1,0,?울 금천??흥??832-14
5962,?산1??주??터,37.4702205,126.8970511,2,4,7,4,3,10,8,9,2,2,5,6,7,2,8,7,3,1,5,6,6,1,8,9,0,?울 금천??산??289-5
5972,1?선 금천구청??37.4569435,126.8941786,5,3,7,8,8,9,7,4,8,5,1,10,1,9,7,7,7,7,5,6,4,4,8,1,0,?울 금천??흥??113-55
5973,1?선 ?산??37.4665133,126.8892552,2,4,5,9,7,8,6,3,5,5,7,2,4,9,1,9,2,7,3,7,6,1,1,10,0,?울 금천?가?동 717
5974,1?선 가?디지?단지??37.4824123,126.8822401,1,8,6,7,10,8,10,3,1,3,6,2,8,10,8,1,5,8,5,7,1,9,6,8,0,?울 금천?가?동 468-4
5975,7?선가?디지?단지??37.4824123,126.8822401,10,10,3,1,8,3,5,9,9,10,8,8,5,1,7,10,10,2,9,2,2,6,7,7,0,?울 금천?가?동 468-4
5976,가?우체국,37.4784426,126.8937761,8,10,10,2,5,10,1,1,1,10,7,3,1,4,9,10,6,9,1,6,5,6,10,6,0,?울 금천?가?동 146-61
5977,구로??,37.4718499,126.8846349,3,5,4,2,9,6,9,1,4,8,6,1,3,3,8,2,3,6,8,8,3,1,8,9,0,?울 금천?가?동 319-25
5963,?산1??분소,37.4579239,126.8877922,8,9,9,6,6,2,7,10,1,10,1,1,5,3,3,8,10,5,1,7,9,6,10,4,0,?울 금천??산??1088-3
5961,가?동 주??터,37.47686849999999,126.891752,2,1,8,6,2,3,1,6,4,7,2,2,8,4,7,7,5,4,3,5,3,1,6,1,0,?울 금천?가?동 144-3
5945,문화체육?터(1?,37.4701375,126.9072634,9,3,3,10,2,8,10,6,10,1,5,4,1,3,3,8,5,6,3,10,10,1,6,9,0,?울 금천??산??371-2
5952,?흥3??공영주차????공통),37.4429254,126.9057099,8,1,7,10,3,1,9,9,10,8,4,4,2,2,1,9,10,6,4,5,5,10,2,4,0,?울 금천??흥??942-6
5946,가?동공영주차??37.4766731,126.8955782,3,4,8,9,10,7,3,6,8,5,10,1,6,4,3,8,4,3,3,7,4,5,1,4,0,?울 금천?가?동 148-28
5947,?산1??공영주차????공통),37.4649422,126.8948154,2,6,4,9,1,2,2,4,4,6,5,2,3,8,5,7,1,2,2,4,6,10,6,4,0,?울 금천??산??1006-94
5948,?산3??공영주차??37.4794926,126.9063405,6,3,10,4,4,10,7,5,8,5,7,9,6,6,6,10,2,7,7,10,6,4,3,4,0,?울 금천??산??898-24
5949,?산4??공영주차??37.4694328,126.9045065,9,9,7,7,7,3,10,1,9,10,6,8,5,3,8,5,10,3,5,2,3,6,9,3,0,?울 금천??산??187-40
5950,?목??공영주차??37.4763665,126.9019023,8,9,3,7,1,10,4,8,2,8,6,6,2,5,5,9,10,10,3,10,8,3,6,3,0,?울 금천??산??971
5951,구룡 공영주차????공통),37.4778911,126.9027612,1,6,6,5,9,1,3,2,9,10,1,7,6,5,8,2,10,8,9,9,10,2,4,8,0,?울 금천??산??964
5953,?성 공영주차??37.454793,126.9092089,6,7,6,3,10,3,9,6,3,3,2,4,7,4,6,3,7,7,10,4,5,6,5,4,0,?울 금천??흥??171-4
5960,마을?력???울??37.451802,126.9116217,8,7,10,4,6,7,3,8,1,9,6,4,9,10,8,1,5,7,7,3,8,2,2,3,0,?울 금천??흥??247-19
5954,?봉 공영주차????공통),37.4607494,126.9109517,5,5,2,9,10,5,3,5,5,2,5,3,4,9,9,2,9,8,1,8,10,10,10,3,0,?울 금천??흥??3-129
5955,?흥4??공영주차??37.4594345,126.9088506,4,7,8,5,4,1,6,5,8,5,4,2,10,2,8,7,8,5,3,5,1,6,3,7,0,?울 금천??흥??704-56
5956,견인보???37.4831701,126.8758006,8,7,1,6,3,10,1,9,5,1,3,2,7,6,4,5,9,6,1,8,10,1,6,6,0,?울 금천?가?동 614-34
5957,공단본?,37.4457876,126.9026727,8,3,3,9,6,6,8,7,1,5,10,3,2,10,8,6,8,6,9,10,10,3,7,5,0,?울 금천??흥??985-26
5958,?산?서관(1?,37.467496,126.9080765,4,9,7,5,8,8,8,7,5,3,1,1,8,7,6,2,5,1,10,8,10,5,6,8,0,?울 금천??산??375-2
5959,가?도??(1?,37.4734934,126.8921255,3,7,9,1,1,2,2,1,1,7,7,5,5,3,2,8,6,3,9,2,2,8,8,5,0,?울 금천?가?동 235-3
6051,광희지구?,37.5652432,127.0133851,2,9,8,8,2,4,10,8,9,6,4,4,1,5,10,9,10,8,8,8,2,7,9,6,0,?울 중구 ?당??250-10
6053,?당?출??37.5650444,127.0163807,8,7,9,8,4,3,9,7,7,6,10,5,3,4,2,10,6,6,3,10,8,1,6,7,0,?울 중구 ?당??100-1
6197,?당A 지?상가,37.5684938,127.0193571,7,2,10,3,7,5,5,5,3,4,2,9,10,10,1,7,6,2,1,7,7,2,10,5,0,?울 중구 ?학??119
6126,?공빌딩,37.5637884,126.9800165,9,4,5,3,3,9,9,10,2,4,3,9,5,6,4,4,6,8,4,7,10,2,1,7,0,?울 중구 ?공??81
6146,?세계백?점 본점 ??,37.56092230000001,126.9811389,10,6,6,4,4,4,9,2,7,1,3,4,1,1,9,10,1,4,3,7,4,4,7,8,0,?울 중구 충무?가 52-5
6147,?세계백?점 본점 본? 2?37.56092230000001,126.9811389,8,7,10,8,3,2,3,5,1,5,3,6,7,2,3,4,8,3,3,7,2,5,8,3,0,?울 중구 충무?가 52-5
6148,광희??공중?장??37.5643061,127.0063581,7,2,6,4,5,3,5,7,3,3,5,9,1,4,4,7,8,3,5,8,9,5,10,2,0,?울 중구 광희??가 202-1
6149,??문시??공중?장??37.5594216,126.9762398,5,1,7,2,10,3,3,2,3,9,9,2,3,9,3,9,2,3,10,10,10,7,7,7,0,?울 중구 ?창??51-1
6150,명동지?상가,37.5608373,126.9770665,7,1,5,10,5,7,7,10,9,8,7,7,9,9,6,9,8,4,1,2,4,10,7,3,0,?울 중구 ??문로4가 24-1
6151,SK?너지 ?계로주?소,37.5616833,126.9971878,6,6,1,6,6,4,4,6,5,1,7,2,4,1,6,8,4,3,2,4,2,1,10,2,0,?울 중구 ?동2가 47-4
6152,초동주유??37.5647031,126.998033,6,2,3,5,6,3,8,2,9,9,5,2,2,1,1,6,5,6,7,6,3,3,10,3,0,?울 중구 ????45-1
6153,???구??3) ?장??37.5605514,127.0057072,8,7,4,8,3,7,7,9,4,9,4,1,4,2,5,4,10,4,1,9,10,7,10,10,0,?울 중구 ?충??가 62-3
6154,?수??3) ?장??37.5587251,127.0120213,7,2,9,8,9,7,2,9,7,6,8,8,4,10,6,8,3,7,7,5,4,6,3,6,0,?울 중구 ?당??338-13
6155,DDP??4)(지??? ?장??37.5597641,127.0052075,10,5,4,1,4,4,1,7,2,4,5,9,5,7,3,5,4,7,6,8,2,1,10,4,0,?울 중구 ?충??가 188-11
6156,DDP??4)(지???,37.5597641,127.0052075,5,10,1,4,9,1,1,7,2,2,1,9,7,4,3,2,7,5,9,9,7,1,8,4,0,?울 중구 ?충??가 188-11
6157,충무로역(4) ?장??37.5613874,126.9962601,1,3,2,7,6,4,4,6,3,2,6,6,1,10,10,4,5,5,4,7,7,1,3,10,0,?울 중구 ?동2가 32-19
6158,명동??4),37.5613874,126.9962601,6,5,2,7,9,10,8,10,5,7,1,4,3,10,1,3,9,7,4,7,5,10,7,4,0,?울 중구 ?동2가 32-19
6159,?현??4),37.5613874,126.9962601,9,2,1,8,1,6,10,9,9,4,7,10,9,10,9,7,4,7,8,2,2,1,3,2,0,?울 중구 ?동2가 32-19
6160,???가??5) ?장??37.5657457,126.9980331,3,1,8,6,4,1,10,1,5,3,4,1,10,1,2,9,2,9,6,8,8,1,6,1,0,?울 중구 ????138-1
6145,?백화???플?자,37.5648094,126.9810897,7,2,6,10,8,8,10,6,6,8,8,8,2,10,9,2,6,10,1,1,4,2,4,1,0,?울 중구 ?공??1
6144,?백화???비?엘,37.5648094,126.9810897,9,6,9,7,9,3,3,6,2,2,8,3,4,2,2,2,1,4,7,10,1,8,10,1,0,?울 중구 ?공??1
6143,?백화??본점,37.5648094,126.9810897,1,9,9,8,6,1,6,9,7,2,7,6,4,4,8,9,1,4,6,9,7,3,3,3,0,?울 중구 ?공??1
6134,?외빌딩,37.5682164,126.9816236,3,10,7,5,3,6,3,2,1,6,10,8,5,8,3,1,5,7,4,10,10,10,7,3,0,?울 중구 ?동 70
6128,?그?쳐???37.5675372,126.9885256,2,4,6,1,3,7,10,3,2,8,6,3,7,4,6,3,1,7,5,1,4,5,1,8,0,?울 중구 ?표??99
6129,?림빌딩,37.5630208,127.0035849,4,10,1,5,10,8,1,8,2,6,10,7,10,1,5,1,3,9,9,6,10,7,9,1,0,?울 중구 ?림??151-11
6130,?성빌딩,37.5675316,126.9996713,3,6,5,8,3,3,3,3,6,7,7,1,7,6,5,10,4,2,6,5,8,3,2,6,0,?울 중구 주교??250-1
6131,?교빌딩,37.5673769,126.9865762,1,10,4,7,8,3,9,5,2,2,1,3,1,3,9,5,4,6,8,7,8,3,7,5,0,?울 중구 ?교??1
6132,?산?퀘어,37.5616414,126.9911147,1,5,9,3,8,4,3,2,6,2,3,1,10,6,4,5,6,3,8,2,4,7,1,6,0,?울 중구 충무?가 60-1
6133,?림빌딩,37.5644057,127.0028541,5,3,2,1,8,4,3,3,10,5,3,5,9,4,4,8,10,1,2,3,1,1,2,3,0,?울 중구 ?림??146-7
6135,?화빌딩,37.5641725,126.9785372,6,6,10,4,7,7,3,5,8,9,3,7,6,2,2,4,9,4,5,9,9,4,7,10,0,?울 중구 ?공??110
6142,sk리더?뷰?산??,37.5592302,126.9806639,1,6,4,3,8,10,1,6,2,3,1,1,9,10,1,8,6,5,5,4,10,3,7,4,0,?울 중구 ?현??가 206
6136,?산????37.5561316,126.9796309,7,8,4,2,8,9,1,9,8,7,6,7,5,10,9,7,4,7,10,8,9,3,3,8,0,?울 중구 ?창??203-15
6137,문화??37.5681319,126.9984737,9,8,2,3,4,7,7,8,3,8,4,3,6,10,9,9,6,6,2,10,5,9,10,9,0,?울 중구 주교??118-3
6138,미나미야?37.5572824,126.98584,2,3,9,9,2,10,5,7,3,10,10,5,3,3,5,4,4,3,4,2,9,2,4,8,0,?울 중구 ?산??가 49-31
6139,뽀뽀치킨,37.5591419,126.9797455,9,2,6,2,10,3,3,10,10,1,10,10,1,6,2,7,1,6,10,3,10,2,2,4,0,?울 중구 ?현??가 188
6140,?발??37.5615804,126.9946152,9,2,3,3,10,3,10,9,5,1,7,4,7,3,5,1,8,8,2,2,9,3,6,5,0,?울 중구 ?동2가 13-18
6141,진고?37.5630127,126.9928333,3,1,4,1,8,6,1,7,5,10,6,1,5,9,3,7,8,3,5,2,7,4,7,1,0,?울 중구 충무?가 30-16
6161,??문역?문?공?역(5) ?장??37.5647031,126.998033,4,4,6,4,5,9,10,8,9,8,1,5,5,1,10,9,9,7,7,1,5,8,2,10,0,?울 중구 ????45-1
6162,버티고개??6) ?장??37.5587251,127.0120213,6,7,4,8,6,7,5,6,3,5,4,5,4,3,10,8,4,4,8,9,1,10,2,4,0,?울 중구 ?당??338-13
6163,?수??6) ?장??37.5587251,127.0120213,1,1,6,3,7,4,7,7,1,4,10,5,5,3,10,9,5,8,5,4,1,4,3,1,0,?울 중구 ?당??338-13
6189,?련?공??공영주차??37.5673944,127.0035451,8,2,4,4,5,2,2,6,1,8,1,2,6,2,8,2,7,8,3,3,9,8,4,1,0,?울 중구 ???가 40-3
6183,?울?청 ?소문청??1?로비,37.5643082,126.9744408,1,3,1,10,1,1,5,2,3,4,4,1,2,9,3,6,7,5,10,5,7,2,6,5,0,?울 중구 ?소문동 37
6184,?울?별??중??도?업??37.5534106,127.0029971,6,9,5,5,10,2,3,1,6,7,7,10,6,8,1,5,9,5,10,10,9,10,1,3,0,?울 중구 ?충??가 208-1
6185,?산?술?터,37.5589628,126.9883506,10,8,5,7,1,2,8,9,7,6,1,10,3,10,7,3,9,1,2,6,8,4,6,8,0,?울 중구 ?장??8-19
6186,?립미술관 ?소문본관,37.5643082,126.9744408,4,5,10,3,10,9,2,7,3,1,10,7,3,2,9,8,10,3,8,1,7,2,4,9,0,?울 중구 ?소문동 37
6187,?산골한?마???문?장??37.5583775,126.9939831,7,3,10,1,4,4,5,3,7,6,8,1,6,3,8,4,4,2,5,2,2,8,2,4,0,?울 중구 ?동2가 84-1
6483,2002?래?습??37.5684119,127.0825064,10,2,8,8,7,5,3,9,3,1,4,5,1,3,9,3,5,7,3,8,6,2,2,9,0,?울 광진?중곡??691-6
6190,?충체육관 B,37.5581571,127.0068191,1,9,8,6,7,6,8,2,1,2,10,2,6,6,6,10,7,4,5,5,5,8,5,5,0,?울 중구 ?충??가 200-102
6181,?울백병??37.5649697,126.9888488,2,5,2,6,3,5,10,2,4,3,4,4,7,7,6,10,10,4,8,2,4,4,9,2,0,?울 중구 ???가 85
6191,?청A 지?상가,37.5665899,126.9982939,2,4,10,9,2,5,3,4,10,7,8,4,1,1,3,3,8,2,7,8,1,6,8,7,0,?울 중구 ???가 267-1
6192,???구 지?상가,37.5665899,126.9982939,6,2,9,7,6,4,9,8,3,2,7,3,7,4,8,7,6,4,7,3,9,4,5,8,0,?울 중구 ???가 267-1
6193,??3구역 지?상가,37.5665899,126.9982939,2,7,3,9,7,2,1,1,7,2,9,5,2,6,7,2,6,9,1,2,4,5,7,3,0,?울 중구 ???가 267-1
6194,??4구역A 지?상가,37.5665899,126.9982939,8,7,5,1,9,2,1,6,3,8,9,6,2,6,3,2,5,8,6,5,2,3,2,10,0,?울 중구 ???가 267-1
6195,??4구역B 지?상가,37.5665899,126.9982939,2,9,9,3,10,10,4,5,10,2,1,7,10,3,2,3,4,8,10,8,7,1,2,3,0,?울 중구 ???가 267-1
6196,?현 지?상가,37.5647031,126.998033,5,1,3,5,3,5,6,6,9,3,7,6,2,2,1,4,5,2,1,10,5,6,7,1,0,?울 중구 ????45-1
6182,?울?청 본? B1??????,37.5665851,126.9782038,9,4,1,8,5,6,8,7,2,10,6,2,8,10,3,1,3,5,7,5,8,6,3,5,0,?울 중구 ?평?가 31
6180,?중앙?료??37.5674233,127.0060109,6,4,6,5,9,5,4,5,7,1,8,9,5,7,9,7,7,10,8,7,9,10,2,4,0,?울 중구 ???가 18-79
6164,???6) ?장??37.5607672,127.0144712,3,4,1,6,4,8,2,8,3,8,4,4,9,9,6,2,7,9,3,2,7,1,10,1,0,?울 중구 ?당??292-66
6171,가?도??,37.55636459999999,127.0108385,9,3,1,1,9,5,10,5,1,8,5,4,5,4,3,4,10,8,2,10,7,4,8,7,0,?울 중구 ?당??425-11
6165,?당??6) ?장??37.5587251,127.0120213,1,10,2,5,1,6,9,5,3,8,6,6,1,8,4,8,2,1,6,10,9,7,7,7,0,?울 중구 ?당??338-13
6166,?국관광공??37.5704461,127.0087332,7,4,9,8,2,2,9,1,7,5,8,10,7,8,10,7,7,7,6,9,2,7,10,8,0,?울 종로?종로6가 289-3
6167,?금보험공사,37.5685228,126.9807525,9,8,10,9,1,6,6,3,6,1,1,3,4,1,10,2,3,7,6,6,8,7,5,4,0,?울 중구 ?동 33
6168,?국?력공사 ?울본?,37.5652217,126.9832853,9,10,5,6,10,1,5,3,10,9,9,4,10,9,5,9,1,9,7,7,6,7,3,5,0,?울 중구 ???가 199-4
6169,?네?코??,37.5634537,126.9837623,6,6,4,7,5,6,10,10,1,7,1,8,8,1,10,2,6,5,2,1,6,8,2,7,0,?울 중구 명동2가 50-14
6170,중구문화??37.5673769,126.9865762,2,2,8,10,3,8,2,4,10,5,7,6,8,9,4,7,4,8,7,8,2,8,2,7,0,?울 중구 ?교??1
6172,?울림도??,37.5617091,127.0189605,10,8,9,1,10,8,10,4,10,8,2,1,4,6,1,2,4,7,4,9,6,9,1,9,0,?울 중구 ?당??52-164
6179,?당종합?회복?관,37.5544011,127.0095329,6,9,7,10,5,8,4,9,1,7,3,5,6,4,6,2,6,7,9,3,5,3,6,10,0,?울 중구 ?당??361-18
6173,?현체육?터,37.5562087,126.9815817,5,10,3,6,1,8,7,3,10,8,2,10,9,8,9,8,10,4,10,3,3,9,1,5,0,?울 중구 ?현??가 115
6174,무학봉체??,37.5623849,127.02456,1,7,2,3,7,6,6,7,1,6,2,9,1,8,10,5,4,7,5,8,9,5,3,5,0,?울 중구 ?당????12-75
6175,?기?문?체?센??37.5555781,126.9647417,8,3,5,6,1,9,7,9,1,2,9,5,3,7,8,7,2,9,6,9,7,1,6,9,0,?울 중구 만리??가 6-1
6176,?수?인종합복?관,37.5524868,127.0093184,7,3,9,2,6,9,5,2,6,4,6,1,9,3,4,2,4,10,9,10,6,2,8,7,0,?울 중구 ?당??366-18
6177,중구??센??37.5518392,127.0125843,5,4,7,6,7,4,9,5,3,6,8,4,9,7,6,8,6,4,4,1,5,8,6,1,0,?울 중구 ?당??844-5
6178,?락종합?회복?관,37.5650915,127.0227986,8,7,10,10,3,4,4,7,7,5,4,10,10,3,3,8,5,2,9,7,10,1,9,3,0,?울 중구 ?당??160-2
6127,?그?스,37.5684899,126.9795954,9,8,10,3,6,7,1,3,6,10,7,6,7,1,8,5,3,2,6,7,2,1,7,6,0,?울 중구 무교??7
6125,매일경제,37.5604895,126.9928422,5,4,6,4,7,9,1,8,8,6,8,10,8,3,7,6,9,4,9,8,6,5,6,2,0,?울 중구 ?동1가 30-1
6054,?충?출??37.5588159,127.0048761,9,9,3,10,5,7,7,2,6,9,7,7,2,8,7,6,10,4,2,7,4,8,4,4,0,?울 중구 ?충??가 196-1
6124,광화문빌??37.5687267,126.9761258,1,2,4,7,3,1,10,10,4,2,2,4,8,6,3,1,6,1,7,10,1,5,8,4,0,?울 중구 ?평?가 62-4
6073,?련?공?주차장 지??1??측,37.5673944,127.0035451,6,8,6,8,7,4,8,1,3,5,4,4,7,5,6,2,2,8,3,7,8,4,6,4,0,?울 중구 ???가 40-3
6074,?련?공?주차장 지??1?중앙,37.5673944,127.0035451,8,6,3,9,1,1,2,8,10,4,2,3,10,7,2,8,8,9,10,4,7,7,9,10,0,?울 중구 ???가 40-3
6075,?련?공?주차장 지??2??측,37.5673407,127.0037725,3,5,3,3,1,1,10,8,4,10,3,7,9,2,5,9,10,5,4,9,9,10,7,5,0,?울 중구 ???가 40-3
6076,?련?공?주차장 지??2?중앙,37.5673407,127.0037725,6,4,8,6,5,9,4,1,3,1,8,7,9,5,7,6,9,6,10,2,4,4,9,7,0,?울 중구 ???가 40-3
6077,?각???구,37.5539469,126.9899134,6,6,4,5,6,8,8,2,5,10,8,7,5,4,10,5,9,7,4,6,10,9,8,8,0,?울 중구 ?장????5-6
6078,?두체육?화?실,37.55466320000001,126.9827338,4,5,5,5,7,7,4,6,3,2,6,6,2,5,1,9,1,5,1,3,3,2,7,7,0,?울 중구 ?현??가 ??1-16
6079,?현?화?실,37.5543813,126.9809985,5,10,6,7,8,5,10,5,7,2,4,6,1,4,10,5,2,10,6,6,7,2,7,2,0,?울 중구 ?현??가 100-177
6080,목멱?방?장??37.5539469,126.9899134,5,1,3,1,5,9,4,7,6,7,8,4,5,1,1,7,4,10,7,7,1,2,10,2,0,?울 중구 ?장????5-6
6081,?호??37.5544845,126.9998118,9,6,2,4,5,7,3,10,8,6,4,6,4,1,3,8,1,3,6,3,6,1,1,1,0,?울 중구 ?충??가 ??14-102
6082,?충체육??37.5511805,126.9965862,10,3,5,8,5,5,7,5,10,2,6,9,5,4,9,8,7,6,7,9,5,3,6,6,0,?울 중구 ?충??가 ??14-21
6083,?충?공??37.5576772,127.0040569,1,10,3,5,3,8,10,10,9,1,1,8,10,5,5,4,7,9,1,3,7,7,3,9,0,?울 중구 ?동3가 26-1
6084,1?터??37.5539469,126.9899134,6,10,6,4,8,6,9,3,10,1,8,2,9,1,4,6,9,2,2,7,7,3,10,7,0,?울 중구 ?장????5-6
6085,?충체육관A,37.5581571,127.0068191,2,8,2,4,8,7,10,1,3,10,7,5,2,2,4,8,6,1,5,4,2,2,7,8,0,?울 중구 ?충??가 200-102
6086,?스????주유??37.55706790000001,126.9745729,3,7,6,3,6,8,6,9,3,5,1,1,8,7,8,10,1,6,3,8,9,2,3,5,0,?울 중구 ??문로5가 84-17
6087,?남주유??37.5583749,126.9720939,3,8,8,9,5,3,3,3,6,4,3,9,5,5,6,8,8,8,10,3,7,8,7,10,0,?울 중구 봉래??가 126-2
6072,??문??상가 B1?37.5671733,127.0120998,2,6,3,9,8,2,7,1,3,8,7,5,10,6,4,9,7,8,4,9,9,6,10,3,0,?울 중구 ?당??251-7
6071,??문??상가 3?37.5671733,127.0120998,10,5,1,8,8,1,4,8,7,8,4,9,2,4,3,9,1,7,4,9,7,8,9,7,0,?울 중구 ?당??251-7
6070,??문??상가 2?37.5671733,127.0120998,6,6,4,6,2,2,8,8,6,1,2,10,3,4,7,3,8,5,4,10,10,3,4,10,0,?울 중구 ?당??251-7
6061,?울?평로우체국,37.5596068,126.9738113,1,3,1,6,2,2,5,8,7,8,10,8,3,10,4,10,5,8,9,2,6,1,6,10,0,?울 중구 봉래??가 5-36
6055,충무?출??37.5608522,126.9915765,6,6,8,2,8,2,5,3,7,10,7,3,10,2,6,3,6,2,2,3,8,9,9,10,0,?울 중구 ?동1가 20-5
6056,???가?출??37.5661811,126.9928486,10,7,5,6,4,6,2,6,3,5,7,8,4,3,6,8,4,3,5,6,2,1,10,7,0,?울 중구 ???가 291-50
6057,?종로파출소,37.5689364,126.9764239,4,6,7,5,10,7,8,2,6,3,10,8,3,1,7,3,10,10,3,2,5,10,6,9,0,?울 중구 ?평?가 68-1
6058,?울중앙?체??스????,37.5616337,126.9820739,9,10,6,8,5,1,1,3,5,4,6,6,8,7,4,8,7,7,10,3,8,7,3,9,0,?울 중구 충무?가 21-1
6059,?울?공?우체국,37.5625925,126.9775577,2,8,10,3,10,2,8,6,10,5,8,10,5,9,8,2,10,3,8,10,8,4,6,8,0,?울 중구 북창??70-1
6060,?울충무?가?체?37.5624743,126.989728,5,6,2,3,1,9,6,4,9,8,7,10,7,8,2,10,9,4,7,3,2,2,8,9,0,?울 중구 충무?가 49-11
6062,중??방??37.5647606,127.0153651,3,5,6,1,6,3,4,3,10,1,2,7,5,9,3,9,4,3,4,10,7,9,7,9,0,?울 중구 무학??43
6069,??문??상가 1?37.5671733,127.0120998,9,5,6,7,10,2,9,7,6,6,3,2,9,4,6,2,9,10,6,1,2,9,8,2,0,?울 중구 ?당??251-7
6063,???19?전?터,37.5671733,127.0120998,6,8,5,8,4,2,3,4,6,1,7,5,6,2,3,5,4,3,5,1,9,6,8,10,0,?울 중구 ?당??251-7
6064,?당119?전?터,37.552915,127.0096209,8,2,9,7,2,8,5,1,6,8,5,7,8,5,1,9,3,7,8,1,6,3,2,5,0,?울 중구 ?당??366-12
6065,명동????상가,37.5613874,126.9962601,2,9,1,3,8,10,7,9,1,1,6,9,5,8,10,5,4,8,1,3,6,7,5,2,0,?울 중구 ?동2가 32-19
6066,?공지?상가C,37.5644665,126.9789123,2,7,8,9,9,6,4,6,5,4,3,6,6,5,7,3,3,6,3,5,4,8,1,7,0,?울 중구 ??문로2가 9-9
6067,?공지?상가B,37.5644665,126.9789123,5,4,1,4,4,9,7,1,7,7,7,7,1,3,4,8,2,2,7,8,9,5,4,1,0,?울 중구 ??문로2가 9-9
6068,?공지?상가A,37.5644665,126.9789123,7,8,9,2,1,5,2,1,10,1,4,2,3,1,7,1,1,9,10,8,3,1,3,6,0,?울 중구 ??문로2가 9-9
6088,?화주유??37.5647309,127.0255275,3,10,2,7,2,3,6,9,8,9,6,3,5,7,10,5,3,2,7,3,6,10,8,10,0,?울 중구 ?당??741
6089,?당?주?소,37.5646022,127.01641,5,9,6,8,6,5,8,1,7,10,6,8,4,6,6,8,5,2,7,10,7,7,5,2,0,?울 중구 ?당??101-9
6090,?수주유??37.5590258,127.0126614,8,7,3,6,4,1,5,10,5,9,10,1,3,10,8,8,5,10,1,10,8,3,6,8,0,?울 중구 ?당??336-5
6116,충무?진양??,37.5624022,126.9959393,2,8,5,1,4,3,6,9,3,9,9,3,3,4,4,8,10,5,10,7,1,4,9,3,0,?울 중구 충무?가 120-3
6110,???문수?상가,37.5594216,126.9762398,7,1,9,10,1,4,2,4,3,4,5,4,6,6,10,3,7,2,1,9,6,5,2,2,0,?울 중구 ?창??51-1
6111,?중부?장-A,37.5656505,127.0009635,1,1,7,3,2,8,3,9,4,9,7,7,7,10,2,8,4,5,3,6,9,6,5,2,0,?울 중구 ?장??127-1
6112,?트?라??37.5691574,127.0129108,5,8,2,9,7,2,9,9,9,9,6,10,7,9,7,6,7,9,7,4,7,4,6,10,0,?울 중구 ?당??213-67
6113,?일?화?장,37.568467,127.0114114,6,10,7,7,10,7,10,4,7,8,8,9,3,10,2,8,7,10,3,9,4,5,9,8,0,?울 중구 ?당??775
6114,?학중앙?장,37.5673819,127.019764,1,9,1,8,8,9,6,2,7,4,1,4,7,5,9,5,5,8,7,10,7,1,5,9,0,?울 중구 ?학??442
6115,??시??37.5694647,127.0149472,6,4,2,2,4,5,5,9,10,1,9,9,9,4,6,8,8,8,6,4,9,8,9,8,0,?울 중구 ?당??217-91
6117,?일??,37.5673263,127.0008809,6,7,10,8,10,7,7,1,6,9,1,5,3,6,2,9,7,5,8,3,10,4,3,4,0,?울 중구 ???가 17-1
6108,?울침?교회,37.5618421,126.9988055,3,3,8,6,7,9,4,7,10,5,6,9,7,7,7,2,1,5,4,7,8,4,2,7,0,?울 중구 충무?가 55-1
6118,?화를만?는교회,37.5548175,127.0061794,9,10,2,5,4,3,4,5,5,10,4,4,7,10,8,2,7,6,1,6,2,10,2,5,0,?울 중구 ?당??826-26
6119,?화?장-?동,37.5694646,127.0080852,10,6,9,1,5,9,1,6,10,3,4,7,9,5,9,1,5,6,4,9,2,7,7,4,0,?울 중구 ???가 17-48
6120,?화?장-가??37.5694646,127.0080852,5,8,6,6,5,8,3,4,7,8,2,1,6,1,10,7,5,6,10,4,1,3,8,1,0,?울 중구 ???가 17-48
6121,CT?터??빌??37.5644711,126.9903565,10,1,8,5,8,2,6,4,8,9,9,6,1,1,4,8,8,10,2,1,7,10,7,5,0,?울 중구 ???가 24-1
6122,YWCA,37.5643815,126.986213,8,2,1,10,10,8,1,2,6,2,8,2,6,10,8,3,8,9,6,7,1,9,9,8,0,?울 중구 명동1가 1-3
6123,금영빌딩,37.5637995,127.0212996,8,10,1,8,4,10,5,5,7,3,5,9,7,5,7,9,7,5,5,6,3,9,4,5,0,?울 중구 ?당??154-42
6109,?운???,37.5680476,126.9953684,4,1,3,9,2,8,9,9,5,10,10,2,5,2,7,8,2,6,1,8,8,2,2,8,0,?울 중구 ?림??207-1
6107,?익?션???37.5601647,126.9789791,4,7,4,2,2,9,10,6,5,6,7,4,10,3,6,4,6,3,8,10,6,3,10,8,0,?울 중구 ?창??5
6091,?울?유 ?충주유??37.5627797,127.0070343,4,7,6,9,3,6,3,1,1,4,8,2,4,10,3,6,6,9,2,6,1,6,4,6,0,?울 중구 ?충??가 31-1
6098,?평?시??37.5691795,127.0109129,2,7,10,8,5,10,2,2,5,8,7,8,8,3,7,5,3,5,8,1,7,8,1,3,0,?울 중구 ?당??772
6092,SK?너지 ?일주유??37.5608503,127.0034182,2,3,1,5,5,9,8,3,9,3,2,2,4,7,10,1,1,3,7,5,9,8,10,4,0,?울 중구 ?충??",,,,,,,,,,,,,,,,,,,,,,,,,,,,,
 186-69,,,,,,,,,,,,,,,,,,,,,,,,,,,,,,
6093,?동주유??37.56091199999999,126.9937135,5,2,4,5,8,2,5,7,5,6,6,4,7,4,5,8,5,2,8,10,1,1,9,4,0,?울 중구 ?동2가 3-1,,
6094,???일뱅크 ?원주유??37.5560123,127.0092922,3,6,6,5,1,5,6,9,7,4,6,7,4,4,8,2,4,3,7,7,2,1,5,2,0,?울 중구 ?당??357-6,,
6095,?성주유???수?너지,37.5639408,127.0156831,3,9,6,10,7,5,6,5,7,3,2,5,2,4,6,10,8,6,2,4,8,9,2,1,0,?울 중구 무학??12-2,
6096,?림상가,37.5675231,126.9954275,6,6,5,5,4,1,8,1,10,2,10,1,5,6,10,3,10,8,10,3,6,3,4,10,0,?울 중구 ?림??207-2,
6097,광희?장,37.5686416,127.0119116,10,1,6,5,8,2,8,10,7,3,1,7,1,5,2,9,10,9,6,2,3,5,5,7,0,?울 중구 ?당??777,
6099,?산??공동?장??37.5599503,127.0120674,5,1,7,2,9,2,4,6,6,1,10,2,1,2,2,10,5,9,4,1,9,8,10,1,0,?울 중구 ?당??402-32,,
6106,부르뎅?동?37.5603075,126.9784487,7,1,2,7,1,4,4,1,7,6,5,3,4,4,2,9,4,8,6,8,1,3,3,5,0,?울 중구 ?창??31-1,,
6100,?평?시??37.5694611,127.0139466,7,3,3,2,4,2,3,1,1,10,1,5,2,3,5,8,5,1,5,8,7,4,4,7,0,?울 중구 ?당??217-92,,
6101,?화??,37.5689552,127.0067914,8,1,2,8,7,9,2,5,10,2,6,7,6,2,5,2,4,3,8,10,2,10,1,2,0,?울 중구 ???가 17-6,
6102,반석교회,37.5679081,126.996654,1,10,5,3,8,2,3,3,4,7,5,2,7,6,7,9,7,10,5,7,2,2,2,6,0,?울 중구 ?림??82-5,
6103,방산?장 A??37.5686974,127.0008215,8,10,1,6,9,4,6,7,6,9,3,2,2,3,8,7,10,9,4,7,5,5,10,10,0,?울 중구 주교??19-1,,
6104,방산?장 B??37.5686974,127.0008215,8,3,8,6,3,3,1,7,3,10,8,1,7,2,4,5,2,2,10,4,9,7,1,6,0,?울 중구 주교??19-1,,
6105,본동??,37.5598923,126.976858,5,8,6,8,10,7,2,7,7,9,8,3,3,7,10,10,2,10,3,7,6,4,3,5,0,?울 중구 ?창??34-65,
6482,?인?운,37.5621308,127.0789381,7,6,4,9,7,5,9,3,2,10,10,1,6,6,8,2,2,5,2,4,4,5,2,7,0,?울 광진?중곡??245-6,
6491,?성?수,37.5688921,127.0798034,7,6,4,3,5,5,6,4,1,8,7,8,5,10,8,6,7,10,9,4,3,1,1,4,0,?울 광진?중곡??187-4,
6484,?조????탕,37.534388,127.0675486,1,10,7,2,5,9,4,1,5,7,4,10,9,6,7,4,3,10,1,1,2,2,1,7,0,?울 광진??양??553-262,
6886,???? 10차동,37.5310917,127.0250737,9,8,5,1,1,6,9,9,10,3,10,2,2,10,3,10,5,4,4,7,2,7,6,6,0,?울 강남??구?동 436,
6870,?강지구? ?장??37.5473378,126.9291956,1,5,4,8,3,5,1,1,10,3,6,3,6,9,3,5,1,9,5,8,10,5,1,6,0,?울 마포?창전??402-17,,
6871,??어린이공원 ?장??37.5488694,126.9251974,10,3,2,9,6,1,5,1,6,6,7,7,8,3,9,9,3,5,6,8,10,8,4,4,0,?울 마포??수??72-7,,
6872,마포?무?화?실,37.5465089,126.9394802,9,3,1,4,8,5,7,2,10,10,8,1,5,4,7,5,4,8,3,5,1,7,5,7,0,?울 마포??수??43,
6873,마포구청 ?장??37.5660739,126.9014792,5,3,8,4,10,10,4,5,9,3,2,2,9,10,9,3,5,6,1,4,9,4,4,5,0,?울 마포??산??370,,
6874,복사꽃어린이공원?장??37.5409552,126.9534847,6,6,3,5,4,1,10,5,10,5,6,8,8,8,8,4,8,10,4,6,9,10,2,10,0,?울 마포??화??2-11,,
6875,구정빌딩,37.5261192,127.0287741,4,9,1,10,8,5,10,3,4,9,7,2,8,9,1,5,7,2,6,6,5,5,10,8,0,?울 강남??사??610-5,
6876,중산빌딩,37.527062,127.0289767,10,3,10,5,10,8,1,2,7,9,1,7,5,6,6,3,5,7,7,1,5,1,9,10,0,?울 강남??사??611,
6877,백영?사빌딩,37.5223424,127.0348808,3,2,2,1,7,3,8,9,6,2,8,6,1,3,7,7,9,6,4,10,6,10,4,10,0,?울 강남??사??630-19,
6878,?구?주?소,37.5253431,127.0338242,9,3,5,5,1,8,1,1,1,5,10,8,10,5,8,10,2,1,2,4,2,1,8,5,0,?울 강남??사??633,
6879,?양주유??37.5288681,127.0341046,6,5,3,10,10,6,9,4,1,1,7,1,10,3,1,4,3,8,10,7,7,7,8,2,0,?울 강남??사??638,,
6880,반도??,37.5288399,127.0346539,7,6,7,2,9,8,7,7,8,4,9,6,4,8,3,5,2,7,3,1,6,7,9,3,0,?울 강남??사??638-2,
6881,?봉빌딩,37.5285838,127.0343031,8,5,4,9,7,9,4,4,9,7,8,4,6,3,3,5,6,6,7,1,6,5,6,1,0,?울 강남??사??638-13,
6882,?네?티,37.5228949,127.0370492,1,1,10,5,5,6,3,5,6,10,9,7,8,7,3,2,3,9,8,2,6,2,6,7,0,?울 강남??사??651-21,
6883,?양???37.5233874,127.0291182,5,10,9,5,4,8,2,8,10,3,2,7,5,5,1,9,10,4,8,4,3,1,10,9,0,?울 강남??사??597,,
6884,배강빌딩,37.5233874,127.0291182,8,8,7,10,8,9,10,4,9,6,9,7,6,9,4,4,3,10,3,6,2,10,4,7,0,?울 강남??사??597,
6869,?화??문?의??장??37.5375757,126.9502115,5,7,1,9,2,10,7,7,2,4,9,3,7,9,8,8,6,9,2,4,2,6,5,6,0,?울 마포??화??353-2,,
6868,만리 공중?장??37.5519166,126.9622459,5,5,3,1,5,10,5,1,6,1,8,4,6,3,5,3,6,6,5,3,2,3,7,5,0,?울 마포??현??386-72,,
6867,망원?수지 공중?장??37.5589067,126.8972046,6,3,3,9,8,6,8,1,3,1,9,2,8,6,3,6,9,7,2,1,8,5,1,1,0,?울 마포?망원??450-3,,
6858,공덕??5) ?장??37.5511348,126.9583888,1,7,9,9,2,6,1,1,2,2,9,8,10,4,9,2,9,6,9,5,9,9,7,8,0,?울 마포?공덕??100-5,,
6852,망원2??주??터 공용?장??37.560312,126.9022827,7,7,7,7,10,6,8,7,10,1,9,6,9,2,2,5,3,5,7,10,10,2,5,10,0,?울 마포?망원??436-14,,
6853,DMC?학?구?터 ?장??37.5760321,126.8905611,10,7,9,9,5,7,4,2,3,4,4,5,8,4,3,4,10,5,4,1,6,1,1,2,0,?울 마포??암??1649,,
6854,마포창업복?관 ?장??37.574151,126.889907,8,6,9,2,9,8,4,10,7,5,2,4,1,10,9,6,6,7,2,4,1,2,5,5,0,?울 마포??암??1640,,
6855,망원?마??공중?장??37.5501447,126.9040993,10,4,6,7,4,5,8,8,10,8,9,9,9,4,7,7,7,6,1,1,2,8,4,10,0,?울 마포??정??455-13,,
6856,공덕?주민센???장??37.5501476,126.9599995,4,10,3,2,1,10,9,1,5,9,4,6,6,2,9,4,3,10,3,1,5,5,3,6,0,?울 마포?공덕??29-6,,
6857,?현?주민센??공중?장??37.5470652,126.9521435,4,6,4,10,1,3,4,10,1,3,3,3,1,8,3,7,1,2,2,8,3,10,9,9,0,?울 마포?공덕??458,,
6859,마포경찰??별? ?장??37.550814,126.954028,5,8,4,1,10,8,6,10,6,9,1,9,3,9,5,6,7,4,1,2,1,5,5,5,0,?울 마포??현??618-1,,
6866,?제천열?공중?장??37.5613293,126.9076158,4,4,3,10,4,6,10,1,9,1,2,4,10,10,4,1,2,6,8,9,5,6,1,10,0,?울 마포??산??221-9,,
6860,?림VIP??빌딩 ?장??37.5462279,126.9521688,9,2,2,8,4,9,6,7,2,2,2,4,8,2,6,7,5,2,2,2,3,2,1,5,0,?울 마포?공덕??404,,
6861,?교?주민센???장??37.555147,126.914627,2,8,7,5,3,3,4,6,8,10,6,4,9,7,10,1,7,4,9,7,5,7,6,6,0,?울 마포??교??478-5,,
6862,?강?주민센???장??37.547703,126.9321134,5,6,1,7,6,8,4,4,5,3,4,9,6,7,5,5,5,1,9,8,8,9,9,7,0,?울 마포?창전??242,,
6863,?강?동 공중?장??37.5376559,126.942172,7,9,5,6,5,10,3,1,9,10,7,3,5,1,7,3,6,3,1,6,2,4,8,5,0,?울 마포?마포??37-2,,
6864,?드컵시?공중?장??37.5654456,126.9007883,7,1,6,5,4,7,6,1,4,10,7,9,8,1,10,5,3,9,6,10,8,10,8,1,0,?울 마포??산??595-1,,
6865,?산2교열?공중?장??37.56580599999999,126.9110305,4,2,1,3,6,4,8,2,7,2,5,6,10,2,9,5,7,9,7,10,7,8,5,6,0,?울 마포??산??94-7,,
6885,???? 4??37.5330263,127.0279257,1,5,8,2,2,7,6,3,5,5,1,2,8,6,2,4,1,7,10,1,3,7,1,6,0,?울 강남??구?동 369-1,,
6887,주구 1??,37.5319756,127.0285632,7,2,8,6,8,6,3,3,3,7,5,9,9,6,8,7,4,10,10,4,9,3,1,7,0,?울 강남??구?동 455,
6923,???일뱅크 ?곡??주?소,37.4854623,127.0432181,9,5,5,3,9,10,7,10,9,1,3,7,3,6,6,10,8,3,6,1,10,2,6,2,0,?울 강남??곡??411-8,
6888,주구 2??,37.5319756,127.0285632,7,9,7,1,9,6,10,8,7,8,6,10,4,6,6,9,10,1,3,7,3,7,5,5,0,?울 강남??구?동 455,
6907,?화진넥?빌,37.5019556,127.0442424,2,8,10,9,10,10,4,3,6,8,6,5,10,3,4,4,2,2,8,4,1,9,6,1,0,?울 강남?????706-20,
6908,?릉?스??37.5031398,127.0479496,7,7,9,2,1,3,6,6,9,7,6,5,4,8,9,2,4,3,2,6,4,7,6,8,0,?울 강남?????708-20,,
6909,?성빌딩,37.4991887,127.0633458,6,10,2,8,6,5,8,8,8,7,4,2,2,7,9,3,9,1,7,3,9,9,7,2,0,?울 강남??치동 990,
6910,?창빌딩,37.4985188,127.0577494,5,1,3,3,10,6,9,1,9,5,5,5,9,6,3,7,4,9,5,6,8,7,9,1,0,?울 강남??치동 940-3,
6911,?성?파????,37.4886292,127.0463247,9,2,7,7,5,10,10,8,8,6,8,6,4,8,3,9,1,8,3,5,10,2,2,3,0,?울 강남??곡??161,
6912,SK리더?뷰,37.4885906,127.0452757,9,2,6,4,5,1,5,7,8,5,1,3,8,10,7,6,2,6,8,2,4,4,1,4,0,?울 강남??곡??152-2,
6913,진달??주유??37.48859059999999,127.0452757,9,10,5,10,3,7,9,10,4,6,4,5,7,10,10,3,1,1,5,7,9,6,8,10,0,?울 강남??곡??152-2,,
6914,?협중앙???곡????37.4864055,127.0440334,9,6,9,4,10,4,10,4,3,5,4,7,6,3,8,9,8,5,7,7,4,5,1,6,0,?울 강남??곡??194,,
6915,?리?빌??구한?빌??,37.4897855,127.0422304,8,1,3,3,8,10,7,1,5,3,6,10,9,4,2,3,6,7,9,4,10,10,7,9,0,?울 강남??곡????176,
6916,?진주유??37.4878254,127.0466876,8,2,10,10,2,7,3,2,8,9,7,6,1,10,3,8,10,2,3,7,4,7,6,2,0,?울 강남??곡??162-5,,
6917,진양까스,37.4862568,127.0408997,6,3,3,6,2,3,10,3,8,4,10,7,9,5,1,3,9,6,7,10,1,4,1,9,0,?울 강남??곡????142,
6918,??증권㈜,37.4885906,127.0452757,3,2,3,4,3,7,8,10,6,7,9,5,7,10,2,6,6,7,3,2,8,4,4,5,0,?울 강남??곡??152-2,
6919,부?빌??37.48859059999999,127.0452757,3,2,2,1,5,2,7,2,5,4,2,6,8,10,4,7,10,4,2,1,9,9,7,4,0,?울 강남??곡??152-2,,
6920,?곡?르지??02??37.4921509,127.0443683,2,5,8,8,6,6,1,2,5,1,7,1,1,4,10,6,10,5,9,5,4,2,6,7,0,?울 강남??곡????6-38,,
6921,?재SK?브?리?37.4853089,127.0344036,3,8,9,5,6,10,6,7,4,6,5,7,5,2,7,8,4,9,6,6,6,10,10,8,0,?울 강남??곡??953-1,,
6906,르메?에르???37.4910463,127.0326814,2,8,4,2,7,4,1,2,6,1,3,3,2,3,1,9,4,9,4,4,4,6,5,1,0,?울 강남?????837-19,,
6905,강남???희???스,37.4913729,127.0325246,3,8,5,6,6,7,4,2,1,2,10,6,9,10,4,10,8,1,3,6,3,4,5,6,0,?울 강남?????837-18,
6904,?광주유??37.4943424,127.0350915,6,10,10,5,9,4,6,7,9,5,7,8,2,10,10,1,5,3,7,6,7,10,2,3,0,?울 강남?????834-47,,
6895,?도벤처???37.5047062,127.0480081,4,3,2,3,7,10,9,5,6,9,7,1,8,9,3,10,4,5,9,2,2,6,10,3,0,?울 강남?????705-18,,
6889,금강?핑?터,37.5296583,127.0308297,1,10,5,8,6,1,1,3,6,1,9,5,10,9,9,6,8,10,2,4,7,8,7,7,0,?울 강남??구?동 458,
6890,???이?3??피?텔,37.5016945,127.0359771,9,6,9,1,6,2,1,4,7,3,6,3,10,3,1,10,1,4,4,8,7,6,2,1,0,?울 강남?????642-6,
6891,???이?2??피?텔,37.5009488,127.0355183,8,9,4,2,3,3,5,8,8,3,10,9,10,9,9,3,5,6,2,10,10,5,10,9,0,?울 강남?????642-16,
6892,?산빌딩,37.5073659,127.0351985,8,4,6,5,5,8,1,1,10,10,9,1,2,3,3,10,4,1,5,5,8,2,5,4,0,?울 강남?????651,
6893,GS칼텍????주?소,37.5027083,127.0363956,7,8,5,10,9,1,9,4,1,2,1,4,1,6,6,8,5,9,5,8,6,10,1,8,0,?울 강남?????668-13,
6894,GS???37.5020938,127.0367984,10,2,10,4,4,8,10,3,4,9,9,8,2,6,3,1,5,8,2,10,9,5,7,3,0,?울 강남?????679,,
6896,?동?빌????빌?점,37.5025813,127.044865,1,7,8,6,6,9,2,3,8,9,3,2,10,3,6,4,7,9,8,3,9,8,7,8,0,?울 강남?????707-7,
6903,감람교회,37.4973656,127.0325989,10,2,2,4,6,7,3,3,10,1,4,5,2,1,6,3,9,10,8,9,7,7,1,8,0,?울 강남?????828-1,
6897,?크?레?스(?캐피????,37.4997187,127.0348982,8,10,1,5,5,7,2,1,7,1,2,6,3,10,5,4,9,1,8,7,7,9,9,1,0,?울 강남?????736-1,
6898,LG ?클?트 ?피?텔,37.498543,127.0350412,8,3,8,1,4,3,1,7,8,6,10,4,9,8,6,10,3,4,8,3,5,3,5,2,0,?울 강남?????736-24,
6899,광택 ?팅 ?문,37.4976477,127.0366067,6,3,3,7,8,3,2,5,2,9,6,10,3,10,2,6,8,5,1,6,9,3,1,10,0,?울 강남?????739-20,
6900,?성빌딩,37.4947841,127.0352061,4,6,5,8,9,4,4,6,9,4,2,7,4,6,6,5,10,10,10,9,6,1,1,2,0,?울 강남?????751-13,
6901,케?스?어강남,37.4995341,127.0282641,6,2,2,2,10,7,5,3,5,9,3,3,5,2,2,4,7,9,1,10,4,4,6,3,0,?울 강남?????818-13,
6902,커피???빌??37.4972898,127.032158,5,5,2,7,9,1,5,7,10,7,3,3,7,5,3,4,5,10,9,5,10,8,3,7,0,?울 강남?????828,,
6851,?화?주민센???장??37.541454,126.9497508,7,10,3,2,5,4,4,3,1,2,5,1,9,7,9,7,10,7,7,2,7,2,1,10,0,?울 마포??화??554,,
6850,?강????장??37.552167,126.935445,1,10,10,9,7,2,1,7,7,1,3,1,2,7,10,3,4,1,9,10,6,1,3,7,0,?울 마포??고?동 112-5,,
6849,??동 주??터 ?장??37.5558027,126.9421554,2,5,10,8,5,3,9,1,7,8,5,2,3,7,6,2,10,6,9,9,10,2,3,1,0,?울 마포??고?동 1-50,,
6848,만리배수지 ?장??37.5547442,126.9615315,2,9,9,3,8,7,1,4,7,5,7,5,7,1,10,7,2,5,3,1,4,5,8,2,0,?울 마포??현??87-7,,
6797,문화비축기? ?비??37.5713027,126.8939106,5,2,2,5,1,6,3,9,2,9,3,3,3,8,2,4,7,5,1,2,2,7,8,4,0,?울 마포??산??670,,
6798,문화비축기? T6,37.5713027,126.8939106,8,1,7,10,8,6,1,8,9,10,9,5,10,10,9,6,2,2,3,4,10,4,5,7,0,?울 마포??산??670,
6799,문화비축기? T5,37.5713027,126.8939106,9,6,7,9,2,8,6,5,3,8,6,5,1,8,2,1,6,8,2,4,9,3,6,9,0,?울 마포??산??670,
6800,문화비축기? T2,37.5713027,126.8939106,6,5,3,7,6,5,3,5,8,10,9,8,10,5,8,10,8,7,2,8,3,7,8,8,0,?울 마포??산??670,
6801,문화비축기? T1,37.5713027,126.8939106,2,6,9,1,10,4,8,9,7,1,3,7,4,7,1,9,7,2,8,2,4,5,2,1,0,?울 마포??산??670,
6802,공덕??6),37.5491304,126.9516779,8,2,8,1,6,3,4,10,6,10,9,4,6,6,8,7,7,2,10,3,1,4,9,9,0,?울 마포?공덕??200,
6803,?리?주?소 ?장??37.5462863,126.9448137,1,8,7,1,2,4,8,4,10,3,8,1,8,3,8,1,3,4,2,10,1,10,10,4,0,?울 마포??리??155-6,,
6804,??역(6),37.547674,126.942332,4,10,6,9,8,1,5,6,4,3,3,6,8,6,3,1,7,8,3,7,9,10,5,1,0,?울 마포???동 128-1,
6805,광흥창역(6),37.547478,126.931855,5,9,1,10,4,9,2,4,4,8,7,3,8,8,5,7,5,8,7,9,6,1,6,1,0,?울 마포?창전??145-17,
6806,?솜?린?공?화?실,37.5596818,126.9119564,2,3,5,1,9,5,6,7,8,10,4,10,3,5,2,7,1,2,2,4,7,6,8,9,0,?울 마포??산??33-5,
6807,구룡근린공원?장??37.5830203,126.8836994,1,3,10,5,9,4,2,9,4,1,10,8,6,6,7,2,4,9,4,9,6,3,3,8,0,?울 마포??암??1583,,
6808,KGIT?암?터 ?장??37.5800559,126.8889998,7,7,7,9,2,3,9,1,3,8,2,4,6,1,8,5,3,5,5,7,1,9,7,9,0,?울 마포??암??1601,,
6809,?암?안2?? ?피?텔 ?장??37.5770713,126.8913808,5,6,6,2,10,1,1,10,5,8,4,7,9,3,6,1,3,6,9,4,3,5,10,10,0,?울 마포??암??1653,,
6810,?안빌딩 ?장??37.5650971,126.912329,8,5,6,10,1,5,1,5,1,6,10,9,9,7,2,10,6,7,1,1,9,7,2,3,0,?울 마포??산??51-11,,
6811,?빌딩 ?장??37.5641139,126.9132241,3,6,10,1,3,9,7,9,3,7,4,7,4,9,3,6,8,6,10,8,2,5,9,9,0,?울 마포??산??52-1,,
6796,문화비축기? ?내??37.5713027,126.8939106,8,1,5,5,6,9,8,3,4,3,4,10,4,10,10,6,6,5,2,6,6,6,4,7,0,?울 마포??산??670,,
6795,?울?립 ??창작?튜?오,37.570908,126.8784506,10,6,2,2,6,2,10,6,7,9,8,5,3,6,5,1,5,6,7,10,10,5,1,7,0,?울 마포??암??481-6,
6794,?울복????37.5466226,126.9498512,7,5,9,1,5,5,3,2,9,10,1,2,9,3,7,1,10,10,5,4,9,6,5,2,0,?울 마포?공덕??370-4,,
6785,마포?수지 공영주차???장??37.5514251,126.95525,7,9,5,6,5,5,8,10,7,1,2,3,2,4,2,4,6,1,1,9,8,3,7,8,0,?울 마포??현??617-1,,
6779,공덕119?전?터,37.5500073,126.9597432,5,1,10,10,7,4,9,3,3,8,2,1,2,6,1,10,2,8,1,7,10,6,1,10,0,?울 마포?공덕??29-7,
6780,?강지구? ?장??37.5424468,126.9430762,4,3,2,6,2,6,1,7,5,1,2,9,6,1,8,3,6,1,7,3,8,10,2,2,0,?울 마포??강??505,,
6781,?리?활체육관 ?장??37.5419855,126.9452068,7,7,6,1,4,1,7,3,10,4,2,7,7,7,6,10,1,8,9,4,5,1,2,3,0,?울 마포??리??174-3,,
6782,?립???인?문?양?터,37.5664463,126.9023601,3,6,4,10,8,1,2,1,2,9,7,7,1,6,6,5,9,4,5,3,5,4,1,5,0,?울 마포??산??370,
6783,?암?출???장??37.5782477,126.8938555,7,7,3,1,10,6,9,6,8,6,3,2,5,8,3,2,5,3,1,9,3,9,3,2,0,?울 마포??암??1614,,
6784,공덕지구? ?장??37.5518863,126.9539738,7,1,2,2,6,7,7,3,3,10,2,7,6,9,6,4,6,2,3,8,6,7,3,9,0,?울 마포??현??784,,
6786,보조구장 ?장??37.5638012,126.8997262,5,6,5,5,4,8,5,8,3,2,8,1,5,1,7,6,6,5,3,4,4,7,6,6,0,?울 마포??산??393-2,,
6793,?울?너지?림?터 ?장??37.5628542,126.8914278,7,7,9,8,7,6,4,1,7,4,7,8,9,8,5,8,4,6,3,9,2,6,7,8,0,?울 마포??암??1535-3,,
6787,?측브릿지(?? ?장??37.5638012,126.8997262,3,3,10,6,9,4,4,3,6,7,6,2,4,6,4,2,5,5,2,7,3,5,2,4,0,?울 마포??산??393-2,,
6788,?측브릿지(? ?장??37.5638012,126.8997262,3,4,6,4,5,1,1,8,10,10,10,8,1,7,5,3,3,6,10,3,9,8,3,4,0,?울 마포??산??393-2,,
6789,?플?스???장??37.5638012,126.8997262,6,8,3,10,8,7,8,6,1,5,3,10,2,8,1,9,1,1,3,4,6,2,5,6,0,?울 마포??산??393-2,,
6790,메?박스 ???장??37.5638012,126.8997262,6,1,3,4,3,5,4,8,6,9,4,7,2,3,9,3,4,6,7,3,4,8,3,2,0,?울 마포??산??393-2,,
6791,7초소???장??37.5638012,126.8997262,8,7,1,3,3,7,8,7,4,1,7,8,8,4,10,1,6,1,6,1,4,10,7,10,0,?울 마포??산??393-2,,
6792,?우?앞 ?장??37.5638012,126.8997262,3,5,9,1,4,9,3,7,1,6,10,8,8,5,5,1,6,2,8,7,6,5,7,4,0,?울 마포??산??393-2,,
6812,?화?린?공?화?실,37.5446938,126.9148714,7,8,7,1,3,8,3,3,10,2,8,5,8,1,4,1,10,8,9,5,3,7,7,8,0,?울 마포??정??79-4,
6813,?암근린?? ?장??37.5801515,126.8806862,3,3,5,6,1,7,5,10,9,10,6,6,9,9,1,3,3,2,4,3,4,5,2,5,0,?울 마포??암??1680,,
6814,?리?린?공?화?실,37.5601264,126.9012484,2,10,8,10,1,10,2,3,3,3,1,8,6,5,6,9,8,5,10,10,3,10,2,2,0,?울 마포?망원??436-1,
6840,망원1??주??터 ?장??37.5555904,126.9055602,4,3,2,3,10,3,5,6,9,3,6,10,4,10,3,3,8,10,6,8,2,7,7,9,0,?울 마포?망원??403-2,,
6834,망원?출???장??37.5543305,126.9027303,9,8,5,8,10,4,5,2,2,2,5,8,5,4,8,4,6,8,5,8,3,9,1,7,0,?울 마포?망원??398-1,,
6835,?달?어린이공원 ?장??37.5548962,126.9020634,1,2,3,1,6,2,6,7,3,3,2,6,8,6,3,4,1,7,8,7,7,3,6,2,0,?울 마포?망원??408-3,,
6836,마포?린?공?화?실,37.535786,126.9438083,9,3,1,8,6,10,7,6,5,8,10,6,2,6,5,2,5,10,2,6,2,4,5,8,0,?울 마포?마포??350-5,
6837,진도빌딩 ?장??37.5399819,126.9470011,9,7,4,8,7,4,2,6,10,4,9,7,4,5,7,5,5,9,6,5,2,1,1,7,0,?울 마포??화??37,,
6838,?원빌딩 ?장??37.5392312,126.9461843,5,10,2,9,5,3,8,8,7,1,3,10,1,2,2,4,6,7,10,1,1,1,2,9,0,?울 마포??화??292-20,,
6839,SK?브블루?피?텔,37.5519938,126.9565163,7,2,7,2,9,7,1,9,5,4,10,1,4,9,1,7,8,7,9,8,6,8,3,5,0,?울 마포??현??737,
6841,?강?주민센???장??37.5423168,126.9426481,9,6,8,9,3,10,10,2,3,3,2,10,7,10,6,9,6,6,2,2,4,6,7,7,0,?울 마포??강??505,,
6832,부?이근린공원?장??37.5853574,126.8834693,3,3,3,1,6,9,9,3,1,5,2,7,10,4,3,2,7,1,6,10,10,6,3,8,0,?울 마포??암??1735,,
6842,??빌딩 ?장??37.541265,126.9462986,3,9,10,7,1,3,10,3,4,4,7,6,10,10,6,1,4,1,2,8,4,2,10,8,0,?울 마포??화??538,,
6843,진영??빌딩 ?장??37.560943,126.9160606,5,3,6,3,10,5,10,7,4,10,10,9,2,8,7,3,2,10,7,6,7,3,2,4,0,?울 마포??산??209-1,,
6844,?산2??주??터 ?장??37.5685712,126.9089833,9,2,5,1,6,2,1,10,2,2,4,6,5,2,10,9,8,2,8,6,10,7,3,2,0,?울 마포??산??603,,
6845,?정??주??터 ?장??37.55105289999999,126.9118656,3,4,1,4,4,6,5,2,9,4,4,3,8,6,5,3,6,2,10,6,9,6,9,9,0,?울 마포??정??473,,
6846,망원??문?센???장??37.5375757,126.9502115,9,6,2,4,4,1,10,10,2,5,5,4,4,2,7,7,6,2,1,10,9,2,8,10,0,?울 마포??화??353-2,,
6847,???구??2)?장??37.557527,126.9244669,2,8,9,3,9,7,2,3,7,8,2,7,1,9,7,8,5,3,9,8,9,10,10,9,0,?울 마포??교??156-16,,
6833,거구???장??37.5525488,126.9377813,10,6,2,8,10,9,1,5,8,7,5,4,5,1,1,3,7,4,2,8,5,2,10,10,0,?울 마포??수??63-14,,
6831,?암근린공원?장??37.5774937,126.8851245,2,9,9,2,10,2,9,1,3,10,2,4,9,2,10,8,5,2,9,1,1,8,8,10,0,?울 마포??암??1761,,
6815,마포구?체육?터 ?장??37.5564918,126.8968924,6,4,3,2,5,10,3,8,8,10,7,4,7,4,3,8,1,4,10,3,10,8,9,3,0,?울 마포?망원??450-3,,
6822,?잔?리?린?공?화?실,37.5570133,126.925656,2,1,3,6,5,2,1,8,4,3,2,9,3,2,4,1,7,10,1,6,3,1,10,10,0,?울 마포??교??168-1,
6816,?마?어린이공원 ?장??37.5545657,126.908048,1,4,6,10,9,7,2,9,2,10,2,1,8,1,10,9,4,8,6,9,7,10,1,5,0,?울 마포?망원??381-1,,
6817,금수?업 빌딩,37.5600793,126.9068127,7,4,7,7,7,5,6,3,3,2,5,6,10,4,10,10,4,4,6,10,1,10,9,8,0,?울 마포??산??260-4,
6818,?익문화공원?장??37.5522639,126.923324,1,3,5,7,5,5,6,8,3,8,7,4,5,6,9,3,1,1,2,3,3,3,9,10,0,?울 마포??교??359,,
6819,?프?눈커피 ?장??37.5573203,126.9275831,4,3,5,7,2,7,2,3,1,8,9,8,7,7,9,3,7,3,7,10,5,3,7,10,0,?울 마포??교??176-9,,
6820,?티?무?린?공?화?실,37.5596366,126.9187865,6,8,7,6,7,9,7,10,10,2,8,5,2,10,7,1,5,9,4,10,6,2,6,3,0,?울 마포??남??563-5,
6821,?교?린?공?화?실,37.5601647,126.9233033,6,6,2,3,7,8,1,3,9,4,3,10,5,10,2,5,9,10,4,9,2,10,2,4,0,?울 마포??교??197-17,
6823,?익지구? ?장??37.5518627,126.9134473,8,6,7,3,7,3,6,2,3,7,10,10,2,5,5,5,4,5,7,10,10,3,10,7,0,?울 마포??교??491,,
6830,?현?장 고객지?센???장??37.556444,126.9546544,5,1,10,3,7,4,9,5,8,7,7,9,2,2,3,4,9,8,10,1,10,3,4,2,0,?울 마포??현??327-19,,
6824,?교?린?공???장??37.5519022,126.9154045,10,4,5,10,10,1,4,7,9,3,7,6,7,6,10,4,5,2,2,9,9,8,10,7,0,?울 마포??교??391-1,,
6825,?성?재 빌딩 ?장??37.5520369,126.916658,4,6,5,8,8,8,3,3,2,6,5,1,5,4,2,8,7,2,10,2,8,9,9,5,0,?울 마포??교??378-10,,
6826,?암빌딩 ?장??37.5557397,126.939954,3,5,7,9,3,6,5,10,5,6,10,9,7,4,6,5,6,1,8,9,5,8,4,9,0,?울 마포??고?동 40-1,,
6827,중소기업DMC????장??37.5767302,126.8978768,2,8,3,8,6,3,10,1,5,7,8,2,2,7,4,8,1,5,4,8,3,1,5,1,0,?울 마포??암??1622,,
6828,??나무어린이공원?장??37.564577,126.9223225,7,9,3,7,3,7,1,5,1,2,1,8,8,5,2,3,5,2,9,7,6,1,9,5,0,?울 마포??남??250-1,,
6829,?다리어린이공원?장??37.55460619999999,126.912789,7,3,9,5,9,1,7,2,5,4,1,3,10,5,1,7,8,10,2,10,8,5,1,8,0,?울 마포??교??479-1,,
6922,?곡???래??37.4851442,127.0357571,7,5,3,5,3,3,6,9,6,9,9,6,2,4,4,6,4,5,9,4,1,1,3,10,0,?울 강남??곡??957-11,,
6924,?진주유??37.4874316,127.0399976,1,8,8,1,10,10,10,7,10,2,2,6,3,7,1,8,3,3,5,10,10,2,7,8,0,?울 강남??곡??895-8,,
6485,?양교회,37.5366472,127.0616365,2,2,1,10,9,6,8,8,6,7,7,1,5,7,10,9,2,3,8,7,1,10,8,10,0,?울 광진??양??236-156,
7033,?일??,37.492919,127.0589019,3,8,3,9,2,6,8,5,7,6,3,6,9,6,8,6,3,10,3,3,4,10,7,2,0,?울 강남??치동 628,
7017,?리츠???컨벤?헤리츠),37.5132528,127.0314588,9,4,6,5,5,7,10,1,1,1,4,7,1,6,2,6,1,1,5,1,2,2,1,5,0,?울 강남??현??215,
7018,마샬빌딩(강남지?병??,37.5128437,127.0350644,5,2,4,9,8,7,4,10,9,3,3,9,3,2,9,3,8,9,1,9,4,9,5,2,0,?울 강남??현??218-11,
7019,SK?탑 주유??37.5106887,127.0325689,10,2,10,7,2,6,2,8,2,4,6,10,2,3,9,8,10,2,1,3,1,7,3,6,0,?울 강남??현??221,,
7020,?스???37.5136787,127.0317124,6,7,3,9,9,10,6,2,10,10,7,4,9,8,5,4,9,5,10,5,1,3,8,6,0,?울 강남??현??207-3,,
7021,?크?드빌딩,37.5136787,127.0317124,10,2,6,5,6,7,3,4,5,6,3,9,2,5,7,2,10,1,9,8,8,4,6,7,0,?울 강남??현??207-3,
7022,SK ?브블루,37.5166861,127.0405907,1,4,6,3,8,1,1,1,4,7,2,5,1,3,5,10,3,8,3,8,2,2,10,1,0,?울 강남??현??241-3,
7023,G빌딩(?비어??,37.5169769,127.0371791,10,2,7,2,8,9,2,7,3,6,4,2,8,5,6,4,8,10,8,5,10,8,6,4,0,?울 강남??현??114-28,
7024,그랑?리??37.4908388,127.0572409,7,9,4,10,5,1,5,4,5,8,7,3,8,7,8,1,10,7,9,8,2,4,6,3,0,?울 강남??치동 503,,
7025,?경??,37.4921261,127.0625653,4,10,5,1,9,4,4,3,8,1,9,10,5,8,7,2,9,1,3,7,8,6,3,8,0,?울 강남??치동 506,
7026,?플?스??,37.4933573,127.0619092,2,1,8,3,1,8,8,6,5,10,1,3,9,8,3,5,9,4,1,6,8,8,8,8,0,?울 강남??치동 507,
7027,?치풍림빌??37.4935818,127.0623994,7,4,1,6,4,2,4,5,3,8,4,5,3,3,5,2,1,6,7,2,10,9,1,8,0,?울 강남??치동 507-1,,
7028,?치퍼?트빌딩,37.4938284,127.062941,4,5,9,7,6,5,4,3,4,7,4,8,4,5,10,10,5,9,3,5,5,5,7,1,0,?울 강남??치동 507-2,
7029,카이로스빌딩,37.496256,127.060622,3,3,9,4,9,3,4,6,8,9,4,2,7,9,5,5,8,4,6,9,9,9,6,9,0,?울 강남??치동 611,
7030,?치클?시??37.49391,127.060213,10,8,6,2,6,3,8,5,3,5,9,5,2,8,8,5,1,9,9,2,4,1,3,7,0,?울 강남??치동 622,,
7031,?서?종?시??37.4936059,127.0597001,2,8,10,10,3,10,8,3,6,6,6,6,5,2,5,5,7,5,3,1,4,8,3,2,0,?울 강남??치동 623,,
7016,?산빌딩,37.5136787,127.0317124,6,8,2,7,8,9,9,3,7,5,4,5,2,9,7,10,7,6,6,6,9,4,10,8,0,?울 강남??현??207-3,
7015,?암빌딩,37.5136787,127.0317124,8,6,3,2,7,5,3,9,6,3,9,8,8,6,5,10,6,8,10,9,10,8,5,10,0,?울 강남??현??207-3,
7014,보전빌딩,37.5136787,127.0317124,6,5,3,4,8,7,8,6,5,8,9,8,7,2,6,2,3,9,9,7,8,4,2,10,0,?울 강남??현??207-3,
7005,?사?교??37.5147153,127.0226688,8,2,5,9,6,2,2,9,2,3,9,1,3,9,8,7,1,1,9,2,10,4,5,8,0,?울 강남??현??22,,
6999,?동?뱅?집,37.4777519,127.0480837,6,7,5,6,2,9,8,8,5,1,10,2,8,2,8,9,6,4,8,10,9,4,8,1,0,?울 강남?개포??1231-7,
7000,SP??어,37.4782312,127.0475868,6,7,7,3,6,1,10,7,4,3,8,3,9,3,5,5,10,1,6,5,5,7,10,2,0,?울 강남?개포??1231-3,
7001,개포?이르네?마??37.477066,127.0554648,9,6,2,10,3,5,6,9,5,3,8,1,5,4,1,5,9,10,9,7,5,9,9,6,0,?울 강남?개포??1282-2,,
7002,SK주유??37.5186368,127.028238,6,2,7,6,4,5,2,6,1,9,9,4,3,4,5,7,2,5,9,2,8,4,4,8,0,?울 강남??현??8-11,,
7003,?기공사공제조합,37.5131116,127.0208582,7,10,10,5,2,3,7,1,2,9,5,8,6,9,1,9,10,4,8,6,9,3,8,4,0,?울 강남??현??19-7,
7004,?현?파????,37.5147153,127.0226688,10,9,1,2,8,7,1,5,3,10,10,6,3,10,10,7,4,6,2,7,10,6,1,6,0,?울 강남??현??22,
7006,?린빌딩,37.5124997,127.0301893,4,9,4,6,1,4,6,8,9,3,3,2,6,8,7,3,8,7,5,7,8,6,3,2,0,?울 강남??현??131-12,
7013,?누리병??37.5202924,127.0340133,8,3,5,6,1,5,8,3,8,4,3,4,7,1,7,7,7,10,2,2,4,10,1,3,0,?울 강남??현??63-8,,
7007,114빌딩(베스?프?드??,37.5113788,127.0232601,4,1,10,1,10,8,7,10,5,4,3,7,4,8,3,10,1,5,3,9,5,2,5,3,0,?울 강남??현??122-2,
7008,?화?스?리,37.5105327,127.0235227,9,1,3,8,2,7,7,1,10,7,10,2,1,10,1,1,6,2,6,3,7,8,9,8,0,?울 강남??현??122-8,
7009,?현1??주차??37.510693,127.0245943,3,3,7,4,10,8,9,2,9,6,2,4,8,9,10,8,6,6,8,4,10,6,5,3,0,?울 강남??현??123-11,,
7010,?현2??주차??37.5122317,127.0285547,5,10,3,6,3,7,5,8,7,6,6,4,7,3,3,10,10,4,5,10,9,10,6,7,0,?울 강남??현??127-14,,
7011,진우빌딩,37.513655,127.0304903,10,9,7,3,3,10,2,3,10,10,7,7,2,5,5,10,6,7,7,1,7,4,6,7,0,?울 강남??현??129-1,
7012,?일빌딩,37.510146,127.0229181,2,1,6,2,1,3,10,2,5,3,5,7,9,1,9,6,3,3,3,5,9,2,3,6,0,?울 강남??현??141-7,
7032,?종합??,37.4931481,127.0590766,1,2,8,2,3,7,2,1,8,7,5,7,4,1,10,2,9,3,5,1,3,10,2,4,0,?울 강남??치동 626,
7034,?하빌딩,37.4928621,127.0586112,8,5,6,3,9,6,10,2,5,8,2,9,10,4,6,2,10,6,8,6,5,1,5,9,0,?울 강남??치동 629,
6925,?곡?슬??,37.4885906,127.0452757,5,5,1,8,1,8,1,4,1,1,1,5,1,5,3,5,8,3,9,3,3,4,3,8,0,?울 강남??곡??152-2,
7035,?동?개?메디컬센??37.49307930000001,127.0583532,4,5,9,4,2,2,9,4,3,3,1,7,4,1,3,4,1,6,10,1,7,8,9,6,0,?울 강남??치동 629-1,,
7054,?울충신교회,37.4856661,127.0899347,3,1,2,9,7,4,3,2,7,2,1,3,7,4,10,5,9,7,6,6,8,6,1,10,0,?울 강남??서??743-1,
7055,까치마을 ??,37.4847337,127.0876186,9,4,6,8,9,10,1,3,8,1,5,9,5,9,8,6,7,7,4,10,9,3,8,10,0,?울 강남??서??746,
7056,?서?성(?? ??,37.4848958,127.0906778,4,8,6,4,8,10,4,3,8,5,6,8,7,7,6,7,9,1,1,6,8,10,5,5,0,?울 강남??서??747,
7057,?른마을 ??,37.4838689,127.0808707,5,4,8,10,6,1,7,9,6,6,5,10,10,2,6,10,5,9,5,7,8,10,8,2,0,?울 강남??원??719,
7058,목련????? ??,37.4848508,127.085277,8,4,2,5,8,3,6,5,3,4,8,4,3,7,7,9,5,2,8,10,3,1,3,10,0,?울 강남??원??716,
7059,?터??,37.484275,127.0826129,8,5,4,8,1,6,2,6,7,5,9,6,9,8,1,8,1,7,1,9,1,1,7,7,0,?울 강남??원??718,
7060,?솔(?? ??,37.4818897,127.0775108,2,9,6,10,7,3,2,6,4,2,10,5,10,2,7,3,9,5,2,5,10,8,3,7,0,?울 강남??원??731,
7061,?성빌딩(???터),37.4952091,127.0858223,8,6,6,2,3,5,10,2,4,4,1,7,1,3,6,6,9,4,2,8,7,4,2,2,0,?울 강남??원??640-1,
7062,?탑?라??37.4941844,127.0752156,1,9,10,7,4,3,9,10,6,10,1,3,2,9,3,1,3,6,6,7,3,6,5,5,0,?울 강남?개포??12,,
7063,??????,37.4868621,127.0645824,1,5,1,8,2,7,5,5,1,6,6,3,7,4,4,10,6,10,8,4,6,2,10,7,0,?울 강남?개포??152,
7064,?????37.4943476,127.079616,6,5,6,1,9,3,7,4,10,5,9,5,10,10,7,9,3,1,2,5,2,7,3,1,0,?울 강남?개포??13-3,,
7065,???자,37.4942156,127.077617,2,2,9,10,2,2,3,3,5,9,1,4,1,9,10,2,6,1,6,4,1,5,8,4,0,?울 강남?개포??14-1,
7066,?여?주?소,37.4984185,127.0774721,8,8,10,5,6,6,6,7,5,2,1,5,1,4,7,2,4,3,5,8,4,3,10,8,0,?울 강남??치동 2-7,
7067,?서????37.4978012,127.0755689,8,4,6,2,5,9,4,2,10,4,4,3,2,8,5,2,4,8,6,2,5,9,7,1,0,?울 강남??치동 21-1,,
7068,금하빌딩,37.51757,127.041488,6,2,1,7,10,3,1,6,8,10,3,6,1,4,4,4,8,8,3,8,10,6,2,3,0,?울 강남????41-2,
7053,?화기독교사?복지관,37.4848471,127.0933248,10,7,7,6,5,9,7,8,10,4,2,10,6,4,3,8,9,4,9,3,2,6,8,10,0,?울 강남??서??741,
7052,?화?까??37.4934027,127.043035,8,5,1,5,5,7,6,9,2,2,4,8,2,1,2,10,10,1,7,9,7,6,9,4,0,?울 강남?????787-12,,
7051,명품주유??37.4942704,127.0455093,6,4,2,9,2,3,6,7,8,3,10,6,5,5,3,5,1,2,5,5,3,8,7,8,0,?울 강남?????785-17,,
7042,?용(??종합 ??,37.4965381,127.0613449,7,6,3,8,1,10,1,3,3,10,2,4,2,7,8,4,8,3,3,10,2,3,6,1,0,?울 강남??치동 210,
7036,??교회,37.49351,127.0565694,9,4,8,9,8,2,9,1,10,4,3,8,6,10,8,4,3,9,7,4,5,1,9,4,0,?울 강남??치동 645,
7037,?천빌딩,37.4922077,127.0573813,3,6,7,5,7,6,10,1,2,8,6,6,2,2,9,4,6,6,1,8,7,9,1,1,0,?울 강남??치동 651,
7038,?빌딩,37.49246,127.0579272,10,7,3,8,10,6,7,3,7,3,6,6,4,3,1,1,1,6,1,4,9,6,6,7,0,?울 강남??치동 653,
7039,?치삼???? ??,37.4963866,127.058402,4,1,5,4,1,4,8,6,4,7,10,8,5,10,10,2,8,3,8,5,4,3,4,10,0,?울 강남??치동 1014-3,
7040,강남메이??원(?미즈메디병원),37.4982104,127.0599171,10,5,6,10,9,1,4,7,9,1,10,10,8,2,2,10,5,2,9,10,3,2,3,3,0,?울 강남??치동 1021-4,
7041,D'mark빌딩,37.4966877,127.0552639,6,6,4,4,8,2,5,1,9,7,7,3,3,5,9,3,5,7,3,3,4,1,2,3,0,?울 강남??치동 1024,
7043,???이??,37.4994269,127.0446982,10,4,1,1,8,8,10,2,2,4,4,8,10,8,2,4,8,1,5,8,6,4,9,10,0,?울 강남?????711-6,
7050,매봉주유??37.5000776,127.0385419,4,7,2,1,4,2,2,5,7,5,7,2,5,3,7,4,4,10,5,8,3,6,5,9,0,?울 강남?????717,,
7044,개나?주유??37.5000776,127.0385419,5,3,2,2,3,3,2,4,8,9,5,8,8,7,2,5,4,10,9,6,8,5,9,7,0,?울 강남?????717,,
7045,경남??,37.5005712,127.0423112,9,9,1,2,6,4,7,10,5,10,7,5,8,7,8,9,5,7,9,9,8,3,9,2,0,?울 강남?????722,
7046,?건빌???나?비?후?37.4979314,127.0429957,3,4,4,2,5,2,9,3,4,2,7,3,7,8,6,2,1,9,4,1,1,1,10,9,0,?울 강남?????732-19,,
7047,?솔?리??37.499217,127.0484398,7,1,10,1,8,10,1,10,8,9,3,8,3,7,8,8,5,9,4,1,7,5,3,10,0,?울 강남?????755,,
7048,강남?라??37.5000776,127.0385419,6,1,4,2,7,5,8,2,9,7,5,2,5,2,5,7,5,7,7,6,9,9,3,7,0,?울 강남?????717,,
7049,?도빌딩,37.4957172,127.039641,5,6,7,9,1,1,10,2,2,3,8,5,6,1,1,9,2,9,2,1,10,9,10,8,0,?울 강남?????769,
6998,리엔,37.4785061,127.0497779,5,9,2,8,9,10,1,10,7,1,3,9,6,3,7,7,4,6,8,3,9,4,9,8,0,?울 강남?개포??1214-1,
6997,밀?,37.4785938,127.0490615,5,4,2,2,7,7,6,10,8,9,8,7,4,9,8,6,9,5,1,6,3,1,8,5,0,?울 강남?개포??1215,
6996,?가,37.4771847,127.0480315,10,1,2,1,7,5,9,7,7,6,9,4,1,4,5,3,8,8,9,10,1,7,7,7,0,?울 강남?개포??1230-5,
6995,강남?산교회,37.4794773,127.0502789,9,4,4,7,10,9,8,3,4,3,2,6,6,3,4,1,6,6,10,3,2,8,8,7,0,?울 강남?개포??1262-9,
6944,?서?출??37.4891379,127.1047973,7,7,6,1,4,4,1,1,6,8,5,9,5,1,7,10,8,7,4,2,10,7,10,7,0,?울 강남??서??718-1,,
6945,??파출소,37.4651386,127.107375,7,9,5,8,5,1,2,1,3,10,5,5,5,1,8,9,2,7,10,4,6,2,5,1,0,?울 강남??곡??120-9,
6946,?울주택?시공사 본??장??37.4941587,127.0786895,7,9,3,8,2,2,2,7,5,9,2,6,6,1,5,10,2,3,5,4,2,8,4,8,0,?울 강남?개포??14-5,,
6947,?현3공원,37.4708103,127.1120705,9,6,7,4,4,1,1,10,6,3,3,4,10,3,6,5,8,6,2,9,6,6,5,6,0,?울 강남??현????4,
6948,?현4공원,37.4708103,127.1120705,10,1,3,9,9,5,10,10,7,1,4,4,6,4,3,6,9,10,10,2,2,9,1,7,0,?울 강남??현????4,
6949,?논?역,37.5109479,127.047282,7,2,8,4,6,10,2,7,7,2,10,8,8,1,5,7,9,7,9,10,3,9,8,4,0,?울 강남??성??113-7,
6950,?성??2),37.5074089,127.0580262,1,8,5,4,10,5,5,2,5,3,2,8,1,1,8,6,10,10,5,7,9,6,1,1,0,?울 강남??성??172-66,
6951,?릉??2),37.508861,127.063149,6,4,2,10,2,3,5,1,6,3,9,4,9,4,1,5,3,9,9,4,2,9,4,4,0,?울 강남??성??172-66,
6952,????2),37.500326,127.036087,1,2,10,2,5,9,3,4,3,6,5,7,10,8,1,6,1,6,10,3,2,4,3,6,0,?울 강남?????804,
6953,강남??2),37.5000776,127.0385419,4,4,10,2,4,10,6,5,6,7,5,8,10,5,1,10,3,9,8,2,9,9,10,10,0,?울 강남?????717,
6954,?구?역(3),37.5263577,127.0335584,9,2,9,5,2,4,10,4,4,8,5,9,7,7,6,8,6,10,10,2,9,2,8,10,0,?울 강남??사??668-7,
6955,?사??3),37.5210682,127.03414,6,7,2,3,4,7,5,4,8,4,1,2,6,9,2,1,9,10,8,10,3,2,9,3,0,?울 강남??현??279-23,
6956,매봉??3),37.4885906,127.0452757,9,9,4,10,2,10,7,3,3,8,1,1,5,7,7,5,1,3,8,2,4,7,10,7,0,?울 강남??곡??152-2,
6957,?곡??3),37.4885906,127.0452757,6,2,10,7,10,3,2,2,9,5,6,1,8,3,10,5,2,3,9,6,1,4,8,2,0,?울 강남??곡??152-2,
6958,?치역(3),37.493668,127.0619,10,4,2,4,1,9,8,4,3,8,4,4,8,1,3,10,5,6,7,5,3,5,7,2,0,?울 강남??치동 507-4,
6943,?우빌딩,37.5158515,127.0428835,4,3,5,1,9,4,8,8,8,3,9,9,9,2,5,1,10,4,9,10,5,2,4,4,0,?울 강남??성??7-3,
6942,?성?크?파??37.5165115,127.0457524,6,1,1,1,5,8,7,1,8,8,8,5,9,6,7,10,1,9,8,5,6,2,3,2,0,?울 강남??성??14,,
6941,GS칼텍?㈜?성로점,37.5118615,127.0535258,10,3,4,4,6,1,7,3,1,9,6,8,4,4,1,1,4,9,9,10,6,3,5,4,0,?울 강남??성??119-18,
6932,???성?주?소,37.5098576,127.0651101,6,9,7,7,4,5,6,6,2,5,9,5,5,1,9,7,8,6,10,10,4,5,4,9,0,?울 강남??성??169-17,
6926,진달???? ??,37.4885906,127.0452757,3,1,6,3,6,9,5,7,3,6,3,6,4,8,1,2,8,1,5,9,1,2,2,4,0,?울 강남??곡??152-2,
6927,미소빌딩,37.5159856,127.0652076,1,5,2,9,5,8,5,10,7,6,7,8,3,5,2,2,4,5,5,1,3,10,3,5,0,?울 강남??성??101-9,
6928,백영?성빌딩,37.5104091,127.0551518,1,10,7,3,2,10,7,10,3,6,2,6,2,2,6,4,8,9,1,5,9,4,5,8,0,?울 강남??성??151-2,
6929,?성???무?설,37.5099943,127.0555644,1,8,8,9,8,7,6,9,9,2,3,3,9,6,3,5,5,7,10,1,7,8,3,5,0,?울 강남??성??151-6,
6930,?산빌딩,37.5073978,127.0571913,7,7,6,7,7,3,1,1,3,9,3,1,9,4,7,1,10,8,10,3,1,10,9,3,0,?울 강남??성??157-33,
6931,광동?방병원,37.5142598,127.0621315,2,6,7,10,2,10,3,8,3,3,6,2,10,1,7,5,6,4,4,2,2,7,8,10,0,?울 강남??성??161,
6933,?명빌딩,37.5101432,127.0660471,4,8,3,8,2,5,6,4,7,1,7,10,4,6,5,4,6,3,10,4,3,1,6,1,0,?울 강남??성??170-9,
6940,?용?래?넘,37.5123174,127.0518299,1,8,3,4,1,9,9,8,2,7,8,4,9,7,5,5,8,4,5,7,2,3,2,1,0,?울 강남??성??117,
6934,?림빌딩,37.513975,127.0561274,4,6,3,9,10,9,6,6,5,5,6,4,3,9,5,8,4,5,2,1,10,6,1,4,0,?울 강남??성??75,
6935,?진빌딩,37.5112329,127.0438172,9,9,7,10,4,8,6,9,9,8,9,1,9,10,10,9,9,4,6,7,10,2,10,1,0,?울 강남??성??35-11,
6936,?릉빌딩,37.5106475,127.0440147,1,2,3,6,1,8,4,5,4,10,3,3,3,8,8,7,8,1,10,2,1,3,10,2,0,?울 강남??성??37-20,
6937,백영?릉빌딩,37.5110146,127.0452396,10,4,3,6,3,2,7,2,10,6,3,6,7,10,7,2,5,2,9,3,9,8,10,1,0,?울 강남??성??37-22,
6938,S-TOWER,37.5126001,127.0507861,9,6,2,7,4,5,3,9,8,6,9,4,8,1,4,2,2,4,5,6,4,2,4,5,0,?울 강남??성??49-12,
6939,??벅스,37.5135167,127.0527215,8,3,8,2,1,3,8,10,3,3,8,8,9,2,5,1,8,6,3,1,6,9,6,5,0,?울 강남??성??51,
6959,?여?역(3),37.493668,127.0619,4,1,8,9,7,5,10,4,1,1,2,10,3,4,4,7,5,1,3,3,1,1,1,7,0,?울 강남??치동 507-4,
6960,??(3),37.4881652,127.0828815,9,10,10,7,2,1,2,1,8,2,7,8,3,5,10,2,10,10,3,2,2,7,2,4,0,?울 강남??원??50,
6961,?원??3),37.4881652,127.0828815,8,4,10,2,7,9,7,8,6,5,7,7,10,4,3,1,7,2,4,8,4,3,10,8,0,?울 강남??원??50,
6987,개포?성6??? ??,37.4802905,127.0626272,3,7,5,9,3,8,8,9,4,8,5,7,6,4,7,8,6,5,3,9,8,3,4,3,0,?울 강남?개포??660-37,
6981,?성빌딩,37.4887765,127.0673245,5,7,8,7,2,10,4,7,2,9,10,7,3,4,5,9,10,10,5,3,9,9,10,6,0,?울 강남?개포??186-12,
6982,?빌딩,37.4889596,127.0666541,4,7,5,8,4,7,1,2,7,2,8,4,5,2,8,4,3,5,7,7,7,5,5,7,0,?울 강남?개포??186,
6983,?우빌딩(개포5??),37.4885331,127.0674474,7,7,7,7,1,5,1,10,5,7,2,2,1,2,7,1,1,2,8,1,7,8,2,5,0,?울 강남?개포??186-3,
6984,?우빌딩,37.4887258,127.0681319,7,2,7,6,3,1,10,2,3,10,9,1,3,5,2,10,9,4,9,9,8,10,5,5,0,?울 강남?개포??186-5,
6985,?빌딩,37.4891361,127.067521,9,1,9,8,3,2,1,9,7,2,2,10,1,7,5,1,8,4,3,6,10,6,4,9,0,?울 강남?개포??186-14,
6986,?성빌딩,37.4835877,127.0730084,1,9,8,10,10,4,6,3,8,8,1,10,10,1,4,4,10,6,4,8,10,7,5,10,0,?울 강남?개포??107,
6988,개포주유??37.4722409,127.0515134,9,1,4,7,7,10,5,6,2,5,10,2,5,2,8,7,2,9,10,7,7,6,7,7,0,?울 강남?개포??1164-2,,
6979,개포7????,37.4888759,127.0716679,6,10,8,9,8,2,2,5,5,10,2,2,9,7,2,2,10,9,3,4,8,8,8,4,0,?울 강남?개포??185,
6989,?남친환경유?센?빌??37.4752892,127.0504113,2,1,7,10,9,2,5,1,1,3,1,3,6,7,9,7,8,9,4,2,7,5,3,10,0,?울 강남?개포??1197-2,,
6990,?우빌딩,37.4762542,127.0496255,5,7,6,5,6,1,1,1,2,6,10,2,1,6,5,1,2,8,8,4,6,7,9,6,0,?울 강남?개포??1200,
6991,???동?개포??37.5518911,126.9917937,3,4,2,10,10,1,3,5,6,7,9,2,8,8,3,2,3,3,9,1,3,7,1,8,0,?울 중구 ?장????5-6,,
6992,?영빌딩,37.4787014,127.0481467,1,3,7,10,5,7,5,4,1,1,3,1,6,4,8,6,10,1,2,5,3,5,5,10,0,?울 강남?개포??1217-2,
6993,?영빌딩,37.4792252,127.0496679,4,8,9,1,2,3,5,1,2,7,5,4,1,4,8,3,8,7,3,8,4,8,2,4,0,?울 강남?개포??1259-7,
6994,?강빌딩,37.4792377,127.0498351,1,3,6,7,7,2,2,8,5,6,6,8,7,3,5,8,4,6,2,1,2,4,5,7,0,?울 강남?개포??1259-8,
6980,개포빌딩,37.4886736,127.0668063,2,10,6,10,3,3,7,9,1,4,5,2,10,3,7,2,10,10,10,1,8,9,4,7,0,?울 강남?개포??186-1,
6978,??1차아?트 ??,37.4826691,127.0544261,5,6,6,2,10,1,2,3,2,7,3,5,8,9,5,9,3,5,5,1,7,4,7,6,0,?울 강남?개포??653,
6962,?서??3),37.4874685,127.1013245,7,8,4,7,1,6,6,4,8,6,5,8,9,7,3,10,2,4,1,7,4,3,8,7,0,?울 강남??서??728,
6969,강남??지?상가2,37.5000776,127.0385419,5,6,6,9,10,1,8,1,5,9,9,1,2,7,2,9,10,10,9,9,9,5,1,10,0,?울 강남?????717,
6963,???7),37.5167317,127.042221,9,10,7,7,10,2,1,1,6,1,5,10,9,3,3,2,7,8,10,10,3,9,4,5,0,?울 강남??성??1-2,
6964,강남구청??7),37.5167317,127.042221,1,7,8,3,9,8,8,7,5,7,1,9,10,5,9,3,3,4,4,6,10,10,1,3,0,?울 강남??성??1-2,
6965,?동??7),37.5077821,127.0272107,1,5,6,2,10,2,3,10,8,10,6,8,2,3,8,5,1,5,3,1,3,7,4,3,0,?울 강남??현??180,
6966,?현??7),37.5103018,127.0219412,10,7,10,4,7,5,10,5,3,10,10,7,9,9,8,1,2,4,6,1,8,9,9,9,0,?울 강남??현??280,
6967,?현??7),37.5103018,127.0219412,6,10,3,3,5,8,8,6,1,2,8,3,1,9,10,9,8,8,8,2,7,8,5,9,0,?울 강남??현??280,
6968,강남??지?상가1,37.5000776,127.0385419,10,8,9,2,9,6,2,10,3,2,5,7,7,6,7,4,5,6,9,9,2,7,8,1,0,?울 강남?????717,
6970,마루공원 ?형 ?장??37.494876,127.083779,4,1,3,1,4,5,4,6,8,8,6,7,6,6,2,1,2,5,8,4,9,10,3,3,0,?울 강남??원??624-6,,
6977,개포?성3??? ??,37.4839728,127.0560141,10,6,4,1,1,2,10,3,3,10,9,4,6,4,9,2,7,1,3,2,5,5,10,1,0,?울 강남?개포??652,
6971,마루공원 ?외 ?장??37.494876,127.083779,6,6,10,7,3,2,4,7,6,8,3,7,7,3,1,6,2,4,3,3,1,2,1,1,0,?울 강남??원??624-6,,
6972,?코?크 관리동 ?장??37.4965279,127.0832423,10,2,2,1,5,3,9,4,10,4,3,8,3,8,8,5,3,9,9,7,7,7,7,3,0,?울 강남??원??580,,
6973,?코?크 ?외 ?장??37.4965279,127.0832423,8,9,3,7,7,4,10,9,9,1,5,4,9,7,3,5,9,7,4,8,9,1,9,9,0,?울 강남??원??580,,
6974,강남구비즈니?센??37.5094369,127.0419576,1,9,8,4,8,10,5,6,8,9,5,5,8,10,8,9,10,7,9,4,8,4,5,3,0,?울 강남?????681-43,,
6975,경남1차상가,37.4845146,127.054174,5,8,5,3,10,10,4,3,3,4,9,7,4,6,7,7,5,1,8,9,1,9,10,8,0,?울 강남?개포??649,
6976,경남2차상가,37.4845146,127.054174,10,4,9,4,9,1,1,1,2,3,2,3,8,7,9,10,10,5,2,3,2,7,3,10,0,?울 강남?개포??649,
6778,마포??문?의??장??37.5803526,126.8838894,8,5,9,8,4,6,1,10,1,2,6,1,10,1,7,1,7,9,10,9,7,2,4,6,0,?울 마포??암??1688,,
6777,?립마포?인종합복?관 ?장??37.54892510000001,126.9322064,3,9,6,9,5,2,6,3,3,3,1,10,3,6,2,9,4,8,4,9,2,7,3,7,0,?울 마포?창전??140,,
6776,마포?수?물?장?장??37.5651596,126.89847,6,3,9,5,6,3,3,4,10,1,4,8,6,7,8,10,7,7,10,2,5,8,6,7,0,?울 마포??산??533-1,,
6593,강북구청 ?? ?장??37.6397767,127.0255184,7,4,4,9,4,10,3,2,1,9,5,6,5,1,6,1,2,5,2,2,7,8,1,3,0,?울 강북??유??192-59,,
6577,광진구?체육?터 ?장??37.54618869999999,127.1065122,1,1,3,8,10,1,1,9,6,9,7,3,3,6,10,2,2,3,10,3,3,2,2,2,0,?울 광진?광장??313-3,,
6578,중곡종합건강?터,37.5593255,127.0870672,7,8,8,5,4,6,6,1,7,10,8,9,9,10,1,1,6,6,7,7,6,7,8,8,0,?울 광진?중곡??125-11,
6579,중곡문화체육?터 1??장??37.5677968,127.0847326,7,7,10,8,6,7,8,7,7,6,4,10,10,6,10,5,2,9,4,4,2,2,6,5,0,?울 광진?중곡??168-8,,
6580,광진문화?술?? ?장??37.5375194,127.0706501,10,2,10,2,9,10,4,4,3,1,5,4,1,6,9,8,1,1,1,4,9,10,9,8,0,?울 광진??양??227-344,,
6581,광장??체육부지 공용?장??37.5454403,127.1060971,1,3,5,7,4,3,10,1,8,10,2,9,10,5,8,5,6,6,7,7,7,10,1,4,0,?울 광진?광장??311,,
6582,?양공공?링?터,37.5402911,127.0650733,7,4,6,2,9,5,3,1,8,10,2,6,5,7,4,5,4,7,8,3,8,7,6,1,0,?울 광진??양??13-28,
6583,?랑?316 개방?장??37.6079486,127.0618312,4,7,1,9,4,3,8,8,1,1,5,7,4,3,5,2,8,1,5,9,10,8,9,6,0,?울 ?북?????316-17,,
6584,?진빌딩,37.5557922,127.0813207,5,1,5,8,8,5,1,6,9,7,3,7,6,9,7,1,4,4,2,6,6,7,9,6,0,?울 광진??동 222-5,
6585,?길???장??37.517695,126.9140671,1,4,2,5,7,5,5,6,4,4,8,2,9,7,9,3,2,4,8,1,8,8,4,7,0,?울 ?등?구 ?등?동1가 35,,
6586,?풍???장??1),37.50013,126.908969,2,4,5,6,1,6,9,2,7,4,1,4,10,1,6,10,3,5,3,8,9,2,6,6,0,?울 ?등?구 ?길??3599,
6587,?풍???장??2),37.5001413,126.9131951,4,3,1,8,2,2,3,4,8,2,3,7,1,1,10,8,9,2,1,3,9,1,2,4,0,?울 ?등?구 ?길??3859,
6588,?평???장??1),37.5249386,126.894037,1,7,4,9,6,7,5,9,3,7,7,3,1,9,1,3,7,10,2,7,5,8,10,8,0,?울 ?등?구 ?산??가 503,
6589,?평???장??2),37.5229518,126.8835309,5,7,3,2,7,1,4,9,10,8,2,8,8,9,3,4,2,10,3,7,2,5,1,10,0,?울 ?등?구 ?평??가 21,
6590,?등?시?역 ?장??1),37.5249386,126.894037,2,7,8,2,1,3,2,2,5,8,2,6,4,10,2,7,3,5,5,9,2,8,5,3,0,?울 ?등?구 ?산??가 503,
6591,?등?시?역 ?장??2),37.521638,126.9049865,8,5,5,6,1,8,9,2,2,8,7,1,1,7,8,3,8,7,9,2,7,10,1,7,0,?울 ?등?구 ?등?동6가 7-1,
6576,광진문화???장??37.5365231,127.0964741,9,9,10,4,6,4,9,2,7,2,1,9,8,9,9,2,3,4,8,4,7,6,2,6,0,?울 광진?구의??631-2,,
6575,구의3??공영주차??37.539115,127.0913611,9,8,6,2,10,4,3,8,3,5,4,10,3,10,8,1,1,4,8,1,6,7,3,5,0,?울 광진?구의??219-15,,
6574,군자?복?센??37.5555338,127.0754533,7,10,4,2,10,4,4,6,4,2,3,1,1,5,5,2,5,5,4,10,5,1,5,1,0,?울 광진?군자??48-15,,
6565,구의1?주민센??37.5424342,127.0856919,1,10,7,3,2,5,7,5,4,2,3,2,8,8,10,10,2,2,1,4,6,9,3,7,0,?울 광진?구의??237-6,,
6559,?차?배??,37.5489614,127.0965031,4,2,9,5,8,2,6,3,8,6,4,9,6,7,9,8,1,7,3,4,4,8,2,9,0,?울 광진?구의??38-4,
6560,중곡???주민센??37.5605949,127.0800297,9,8,5,7,1,5,7,1,3,6,9,1,2,7,10,6,5,2,8,4,6,4,9,5,0,?울 광진?중곡??259-10,,
6561,중곡???주민센??37.5602505,127.0814843,9,1,4,2,10,7,2,7,7,8,2,3,1,6,2,6,1,2,9,4,4,5,4,3,0,?울 광진?중곡??47-33,,
6562,중곡???주민센??37.5688192,127.0801404,4,10,9,9,2,6,4,9,8,10,10,3,3,9,2,10,2,9,2,2,6,7,4,7,0,?울 광진?중곡??684,,
6563,중곡???주민센??37.5590962,127.0894263,2,8,10,8,9,2,8,4,9,10,1,9,2,5,5,7,3,10,5,6,5,5,10,3,0,?울 광진?중곡??62-24,,
6564,?동주??터,37.5537658,127.0805496,5,6,2,8,2,7,8,3,6,2,4,5,2,2,2,7,4,4,9,6,10,7,5,2,0,?울 광진??동 232-4,
6566,구의2?주민센??37.5424342,127.0856919,9,1,9,8,9,7,8,5,1,3,7,6,2,4,3,1,2,2,2,8,5,4,9,9,0,?울 광진?구의??237-6,,
6573,?양?주민센??37.5465432,127.0713406,8,5,7,7,9,8,3,7,2,1,2,7,4,6,3,8,4,5,4,3,4,1,7,10,0,?울 광진??양??122,,
6567,구의3?주민센??37.5380043,127.0919649,5,4,4,5,4,6,10,2,8,6,5,4,7,2,5,7,4,4,2,7,8,5,9,2,0,?울 광진?구의??587-29,,
6568,광장?주민센??37.5468598,127.1030947,3,7,10,5,3,5,7,2,2,2,3,1,9,2,10,3,3,2,10,7,8,6,2,1,0,?울 광진?광장??248-24,,
6569,?양1?주민신??37.53452,127.0824025,10,6,1,1,3,9,4,8,4,9,3,10,3,3,10,5,10,5,2,5,3,6,3,10,0,?울 광진??양??630-1,,
6570,?양2?주민센??37.5288513,127.084505,10,9,3,2,3,8,6,4,1,7,1,4,6,4,6,7,2,5,4,3,5,5,7,9,0,?울 광진??양??669-2,,
6571,?양3?주민센??37.5338049,127.0728563,6,9,9,4,1,8,3,1,8,7,3,7,9,7,10,4,1,5,4,6,4,8,8,3,0,?울 광진??양??519-10,,
6572,?양4?주민센??37.5341158,127.0662593,3,4,1,4,10,5,7,1,1,10,7,8,8,5,7,7,4,3,5,5,10,10,1,10,0,?울 광진??양??63-1,,
